country_code_iso3c,country_code_iso2c,country,geoname_id,name,population,lat,lon,source_of_lat_lon,status
AFG,AF,Afghanistan,1140026,Herāt,574300,34.34817,62.199670000000005,Global cities list from geonames.org,NA
AFG,AF,Afghanistan,1138958,Kabul,4434550,34.52813000000001,69.17232999999997,Global cities list from geonames.org,NA
AFG,AF,Afghanistan,1138336,Kandahār,523300,31.61332,65.71013,Global cities list from geonames.org,NA
AFG,AF,Afghanistan,1133616,Mazār-e Sharīf,523300,36.70904,67.11086999999999,Global cities list from geonames.org,NA
AGO,AO,Angola,3351663,Benguela,555124,-12.57626,13.40547,Global cities list from geonames.org,NA
AGO,AO,Angola,2243271,Cabinda,550000,-5.567169999999999,12.197869999999998,Global cities list from geonames.org,NA
AGO,AO,Angola,3348078,Cuito,355423,-12.38333,16.933329999999998,Global cities list from geonames.org,NA
AGO,AO,Angola,3348313,Huambo,595304,-12.77611,15.739169999999998,Global cities list from geonames.org,NA
AGO,AO,Angola,3347939,Lobito,357950,-12.364400000000002,13.53601,Global cities list from geonames.org,NA
AGO,AO,Angola,2240449,Luanda,2776168,-8.83682,13.234319999999997,Manually checked - chose the geoname value,NA
AGO,AO,Angola,3347762,Lubango,600751,-14.91717,13.4925,Global cities list from geonames.org,NA
AGO,AO,Angola,2239862,Malanje,455000,-9.54015,16.340960000000003,Global cities list from geonames.org,NA
AGO,AO,Angola,145531,Saurimo,393000,-9.66078,20.39155,Global cities list from geonames.org,NA
AGO,AO,Angola,2236568,Uíge,322531,-7.60874,15.06131,Global cities list from geonames.org,NA
ALB,AL,Albania,3183875,Tirana,418495,41.3275,19.818890000000003,Global cities list from geonames.org,NA
ARE,AE,United Arab Emirates,292968,Abu Dhabi,1807000,24.453884,54.3773438,Google API geocode,NA
ARE,AE,United Arab Emirates,292932,Ajman City,490035,25.40177,55.47878,Global cities list from geonames.org,NA
ARE,AE,United Arab Emirates,292913,Al Ain City,846747,24.19167,55.760560000000005,Global cities list from geonames.org,NA
ARE,AE,United Arab Emirates,292223,Dubai,3478300,25.2623950763931,55.2917861938477,Manually searched on google,lat/lon manually updated
ARE,AE,United Arab Emirates,291074,Ras Al Khaimah City,351943,25.789529999999996,55.9432,Global cities list from geonames.org,NA
ARE,AE,United Arab Emirates,292672,Sharjah,1274749,25.337370000000004,55.41206,Global cities list from geonames.org,NA
ARG,AR,Argentina,3435910,Buenos Aires,2891082,-34.6036844,-58.3815591,Google API geocode,NA
ARG,AR,Argentina,3435217,Corrientes,346334,-27.46784,-58.834399999999995,Global cities list from geonames.org,NA
ARG,AR,Argentina,3860259,Córdoba,1317298,-31.4135,-64.18105,Global cities list from geonames.org,NA
ARG,AR,Argentina,3430863,Mar del Plata,593337,-38.00042,-57.5562,Global cities list from geonames.org,NA
ARG,AR,Argentina,3429886,Posadas,305874,-27.36708,-55.89608,Global cities list from geonames.org,NA
ARG,AR,Argentina,3838583,Rosario,948312,-32.946819999999995,-60.639320000000005,Global cities list from geonames.org,NA
ARG,AR,Argentina,3838233,Salta,520683,-24.7859,-65.41166000000003,Global cities list from geonames.org,NA
ARG,AR,Argentina,3836873,San Miguel de Tucumán,548866,-26.82414,-65.2226,Global cities list from geonames.org,NA
ARG,AR,Argentina,3836277,Santa Fe,391164,-31.64881,-60.70868,Global cities list from geonames.org,NA
ARM,AM,Armenia,616052,Yerevan,1093485,40.1872023,44.515209,Google API geocode,NA
AUS,AU,Australia,2078025,Adelaide,1387290,-34.9284989,138.6007456,Google API geocode,NA
AUS,AU,Australia,2174003,Brisbane,2582007,-27.4704528,153.0260341,Google API geocode,NA
AUS,AU,Australia,2172517,Canberra,367752,-35.28346,149.12807,Global cities list from geonames.org,NA
AUS,AU,Australia,2165087,Gold Coast,640778,-28.00029,153.43088,Global cities list from geonames.org,NA
AUS,AU,Australia,7281838,Logan City,326615,-27.639170000000004,153.10944,Global cities list from geonames.org,NA
AUS,AU,Australia,2158177,Melbourne,4917750,-37.8136276,144.9630576,Google API geocode,NA
AUS,AU,Australia,2155472,Newcastle,348539,-32.92953000000001,151.7801,Global cities list from geonames.org,NA
AUS,AU,Australia,2063523,Perth,2192229,-31.9513993,115.8616783,Google API geocode,NA
AUS,AU,Australia,2147714,Sydney,5231147,-33.8688197,151.2092955,Google API geocode,NA
AUT,AT,Austria,2761369,Vienna,1691468,48.2081664,16.3718643,Google API geocode,NA
AZE,AZ,Azerbaijan,587084,Baku,1116513,40.40926169999999,49.8670924,"Manually checked, chose the google api value",NA
AZE,AZ,Azerbaijan,586523,Ganja,335600,40.68278,46.36056,Global cities list from geonames.org,NA
AZE,AZ,Azerbaijan,584923,Sumqayıt,358675,40.58972,49.66861000000001,Global cities list from geonames.org,NA
BDI,BI,Burundi,425378,Bujumbura,769317,-3.38193,29.36142,Global cities list from geonames.org,NA
BEL,BE,Belgium,2803138,Antwerpen,529247,51.220470000000006,4.400260000000001,Global cities list from geonames.org,NA
BEL,BE,Belgium,2800866,Brussels,1019022,50.8476424,4.3571696,Google API geocode,NA
BEN,BJ,Benin,2395914,Abomey-Calavi,385755,6.44852,2.3556599999999994,Global cities list from geonames.org,NA
BEN,BJ,Benin,2394819,Cotonou,679012,6.3562425,2.4277995,Google API geocode,NA
BFA,BF,Burkina Faso,2362344,Bobo-Dioulasso,904920,11.17715,-4.297899999999999,Global cities list from geonames.org,NA
BFA,BF,Burkina Faso,2357048,Ouagadougou,2415266,12.3714277,-1.5196603,Google API geocode,NA
BGD,BD,Bangladesh,1205733,Chattogram,3920222,22.3384,91.83168,Manually checked - chose the geoname value,NA
BGD,BD,Bangladesh,1185186,Comilla,1030000,23.46186,91.18502999999998,Global cities list from geonames.org,NA
BGD,BD,Bangladesh,1185241,Dhaka,10356500,23.7104,90.40744,Manually checked - chose the geoname value,NA
BGD,BD,Bangladesh,1336135,Khulna,1500689,22.80979,89.56439,Global cities list from geonames.org,NA
BGD,BD,Bangladesh,7483813,Natore,369138,24.41112,88.98673,Global cities list from geonames.org,NA
BGD,BD,Bangladesh,1185188,Rangpur,1031388,25.746639999999996,89.25166000000002,Global cities list from geonames.org,NA
BGD,BD,Bangladesh,1185128,Rājshāhi,763580,24.374,88.60114,Global cities list from geonames.org,NA
BGD,BD,Bangladesh,1185107,Shibganj,378701,25.00146,89.32266,Global cities list from geonames.org,NA
BGD,BD,Bangladesh,1185098,Tungi,337579,23.89154,90.40232,Global cities list from geonames.org,Removed from list (usually because it's a sub-city of a bigger city
BGR,BG,Bulgaria,728193,Plovdiv,346893,42.15,24.75,Global cities list from geonames.org,NA
BGR,BG,Bulgaria,727011,Sofia,1152556,42.6977082,23.3218675,Google API geocode,NA
BGR,BG,Bulgaria,726050,Varna,312770,43.21667,27.91667,Global cities list from geonames.org,NA
BIH,BA,Bosnia and Herzegovina,3191281,Sarajevo,696731,43.8562586,18.4130763,"Manually checked, chose the google api value",NA
BLR,BY,Belarus,629634,Brest,362641,52.097550000000005,23.68775,Global cities list from geonames.org,NA
BLR,BY,Belarus,627907,Homyel',526872,52.4345,30.975399999999997,Global cities list from geonames.org,NA
BLR,BY,Belarus,627904,Hrodna,373547,53.6884,23.8258,Global cities list from geonames.org,NA
BLR,BY,Belarus,625665,Mahilyow,369200,53.916799999999995,30.344900000000003,Global cities list from geonames.org,NA
BLR,BY,Belarus,625144,Minsk,1742124,53.9006011,27.558972,Google API geocode,NA
BLR,BY,Belarus,620127,Vitebsk,342700,55.1904,30.2049,Global cities list from geonames.org,NA
BOL,BO,Bolivia,3919968,Cochabamba,841276,-17.4139766,-66.1653224,Google API geocode,NA
BOL,BO,Bolivia,3911925,La Paz,2004652,-16.5,-68.14999999999999,Manually checked - chose the geoname value,NA
BOL,BO,Bolivia,3904906,Santa Cruz de la Sierra,1831434,-17.786289999999997,-63.18117,Manually checked - chose the geoname value,NA
BRA,BR,Brazil,3407669,Ananindeua,433956,-1.36556,-48.37222,Global cities list from geonames.org,NA
BRA,BR,Brazil,3472287,Anápolis,319587,-16.32667,-48.95278,Global cities list from geonames.org,NA
BRA,BR,Brazil,6316406,Aparecida de Goiânia,510770,-16.82333,-49.24389,Global cities list from geonames.org,NA
BRA,BR,Brazil,3471872,Aracaju,664908,-10.91111,-37.07167,Global cities list from geonames.org,NA
BRA,BR,Brazil,3470279,Bauru,379297,-22.31472,-49.06056,Global cities list from geonames.org,NA
BRA,BR,Brazil,3470142,Belford Roxo,466096,-22.76417,-43.39944,Global cities list from geonames.org,NA
BRA,BR,Brazil,3470127,Belo Horizonte,2721564,-19.919052,-43.9386685,Google API geocode,NA
BRA,BR,Brazil,3405870,Belém,1499641,-1.4558299999999995,-48.504439999999995,Global cities list from geonames.org,NA
BRA,BR,Brazil,3470044,Betim,384000,-19.96778,-44.19833000000001,Global cities list from geonames.org,NA
BRA,BR,Brazil,3469968,Blumenau,361855,-26.91944,-49.06611000000001,Global cities list from geonames.org,NA
BRA,BR,Brazil,3664980,Boa Vista,419652,2.81972,-60.67333000000001,Global cities list from geonames.org,NA
BRA,BR,Brazil,3469058,Brasília,2207718,-15.7942357444663,-47.8852844238281,Manually searched on google,lat/lon manually updated
BRA,BR,Brazil,3403642,Campina Grande,348936,-7.23056,-35.88111,Global cities list from geonames.org,NA
BRA,BR,Brazil,3467865,Campinas,1031554,-22.90556,-47.06083,Global cities list from geonames.org,NA
BRA,BR,Brazil,3467747,Campo Grande,906092,-20.442779999999996,-54.64639,Manually checked - chose the geoname value,NA
BRA,BR,Brazil,3467693,Campos dos Goytacazes,511168,-21.75227,-41.33044,Global cities list from geonames.org,NA
BRA,BR,Brazil,3467467,Canoas,328291,-29.91778,-51.18361,Global cities list from geonames.org,NA
BRA,BR,Brazil,3466998,Carapicuíba,361112,-23.522719999999996,-46.835,Global cities list from geonames.org,NA
BRA,BR,Brazil,3466537,Caxias do Sul,381270,-29.16806,-51.17944,Global cities list from geonames.org,NA
BRA,BR,Brazil,3465624,Contagem,627123,-19.93167,-44.05361,Global cities list from geonames.org,NA
BRA,BR,Brazil,3465038,Cuiabá,618124,-15.59611,-56.09667,Manually checked - chose the geoname value,NA
BRA,BR,Brazil,3464975,Curitiba,1948626,-25.42778,-49.27306,Global cities list from geonames.org,NA
BRA,BR,Brazil,3464739,Diadema,390633,-23.68611,-46.622780000000006,Global cities list from geonames.org,NA
BRA,BR,Brazil,3464374,Duque de Caxias,818329,-22.785559999999997,-43.31166999999999,Global cities list from geonames.org,NA
BRA,BR,Brazil,3463478,Feira de Santana,619609,-12.26667,-38.96667,Global cities list from geonames.org,NA
BRA,BR,Brazil,3463237,Florianópolis,508826,-27.59667,-48.54917,Global cities list from geonames.org,NA
BRA,BR,Brazil,3399415,Fortaleza,2400000,-3.7327203,-38.5270134,Google API geocode,NA
BRA,BR,Brazil,3463011,Franca,358539,-20.53861,-47.40083,Global cities list from geonames.org,NA
BRA,BR,Brazil,3462377,Goiânia,1536097,-16.67861,-49.25389,Manually checked - chose the geoname value,NA
BRA,BR,Brazil,3461789,Guarujá,322750,-23.99306,-46.25639,Global cities list from geonames.org,NA
BRA,BR,Brazil,3461786,Guarulhos,1169577,-23.4596858,-46.5328559,Google API geocode,NA
BRA,BR,Brazil,3460644,Itaquaquecetuba,336679,-23.486109999999996,-46.34833,Global cities list from geonames.org,NA
BRA,BR,Brazil,3397838,Jaboatão,702621,-8.18028,-35.00139,Global cities list from geonames.org,NA
BRA,BR,Brazil,6317344,Jaboatão dos Guararapes,630008,-8.11278,-35.01472,Global cities list from geonames.org,NA
BRA,BR,Brazil,3459712,Joinville,461304,-26.30444,-48.84556,Global cities list from geonames.org,NA
BRA,BR,Brazil,3397277,João Pessoa,817511,-7.118835199999999,-34.8814339,Google API geocode,NA
BRA,BR,Brazil,3459505,Juiz de Fora,573285,-21.76417,-43.35027999999999,Global cities list from geonames.org,NA
BRA,BR,Brazil,3459462,Jundiaí,321589,-23.18639,-46.88417,Global cities list from geonames.org,NA
BRA,BR,Brazil,3458449,Londrina,588125,-23.31028,-51.162780000000005,Global cities list from geonames.org,NA
BRA,BR,Brazil,3396016,Macapá,512902,0.03889,-51.066390000000006,Global cities list from geonames.org,NA
BRA,BR,Brazil,3395981,Maceió,1031597,-9.6660417,-35.7352167,Google API geocode,NA
BRA,BR,Brazil,3663517,Manaus,2219580,-3.1190275,-60.0217314,Google API geocode,NA
BRA,BR,Brazil,3457671,Maringá,311724,-23.425279999999997,-51.93861,Global cities list from geonames.org,NA
BRA,BR,Brazil,3457381,Mauá,477552,-23.66778,-46.46139,Global cities list from geonames.org,Removed from list (usually because it's a sub-city of a bigger city
BRA,BR,Brazil,3457001,Mogi das Cruzes,325746,-23.522779999999997,-46.18833000000001,Global cities list from geonames.org,NA
BRA,BR,Brazil,3456814,Montes Claros,332379,-16.735,-43.86167,Global cities list from geonames.org,NA
BRA,BR,Brazil,3394023,Natal,896708,-5.7841695,-35.1999708,Google API geocode,NA
BRA,BR,Brazil,3456283,Niterói,456456,-22.883329999999997,-43.10361,Global cities list from geonames.org,NA
BRA,BR,Brazil,3456160,Nova Iguaçu,823302,-22.759464,-43.44950499999999,Google API geocode,NA
BRA,BR,Brazil,3393536,Olinda,366754,-8.00889,-34.85527999999999,Global cities list from geonames.org,Removed from list (usually because it's a sub-city of a bigger city
BRA,BR,Brazil,3455775,Osasco,677856,-23.5326334,-46.7915243,Google API geocode,NA
BRA,BR,Brazil,3474574,Palmas,306296,-10.16745,-48.327659999999995,Global cities list from geonames.org,NA
BRA,BR,Brazil,3454244,Pelotas,320674,-31.76997,-52.34101,Global cities list from geonames.org,NA
BRA,BR,Brazil,3453643,Piracicaba,407252,-22.72528,-47.649170000000005,Global cities list from geonames.org,NA
BRA,BR,Brazil,3452925,Porto Alegre,1488252,-30.03283,-51.23019000000001,Manually checked - chose the geoname value,NA
BRA,BR,Brazil,3662762,Porto Velho,548952,-8.76194,-63.90389,Global cities list from geonames.org,NA
BRA,BR,Brazil,3390760,Recife,1653461,-8.05389,-34.88111,Global cities list from geonames.org,NA
BRA,BR,Brazil,3451328,Ribeirão Preto,711825,-21.1775,-47.81027999999999,Global cities list from geonames.org,NA
BRA,BR,Brazil,3451353,Ribeirão das Neves,406802,-19.76694,-44.08667,Global cities list from geonames.org,NA
BRA,BR,Brazil,3662574,Rio Branco,419452,-9.97472,-67.81,Global cities list from geonames.org,NA
BRA,BR,Brazil,3451190,Rio de Janeiro,6747815,-22.9068467,-43.1728965,Google API geocode,NA
BRA,BR,Brazil,3450554,Salvador,2711840,-12.975630000000002,-38.49096,Global cities list from geonames.org,NA
BRA,BR,Brazil,3449701,Santo André,662373,-23.66389,-46.53833000000001,Global cities list from geonames.org,NA
BRA,BR,Brazil,3449433,Santos,433656,-23.96083,-46.33361,Global cities list from geonames.org,NA
BRA,BR,Brazil,3447779,Serra,394153,-20.12861,-40.307779999999994,Global cities list from geonames.org,NA
BRA,BR,Brazil,3447399,Sorocaba,687357,-23.50167,-47.45806,Global cities list from geonames.org,NA
BRA,BR,Brazil,3449344,São Bernardo do Campo,743372,-23.7081951987208,-46.5504455566406,Manually searched on google,lat/lon manually updated
BRA,BR,Brazil,3448639,São José do Rio Preto,374699,-20.81972,-49.379439999999995,Global cities list from geonames.org,NA
BRA,BR,Brazil,3448636,São José dos Campos,729737,-23.17944,-45.88694,Global cities list from geonames.org,NA
BRA,BR,Brazil,3448877,São João de Meriti,454849,-22.803890000000003,-43.37222,Global cities list from geonames.org,NA
BRA,BR,Brazil,3388368,São Luís,917237,-2.52972,-44.30278,Global cities list from geonames.org,NA
BRA,BR,Brazil,3448439,São Paulo,12400232,-23.5513987452034,-46.635931132022,Manually searched on google,lat/lon manually updated
BRA,BR,Brazil,3448136,São Vicente,324457,-23.96306,-46.39194,Global cities list from geonames.org,NA
BRA,BR,Brazil,3446682,Taubaté,317915,-23.02639,-45.55528,Global cities list from geonames.org,NA
BRA,BR,Brazil,3386496,Teresina,871126,-5.096124199999999,-42.8023065,Google API geocode,NA
BRA,BR,Brazil,3445831,Uberlândia,563536,-18.918609999999997,-48.27722,Global cities list from geonames.org,NA
BRA,BR,Brazil,3445026,Vila Velha,394930,-20.32972,-40.29250000000001,Global cities list from geonames.org,NA
BRA,BR,Brazil,3444924,Vitória,312656,-20.31944,-40.337779999999995,Global cities list from geonames.org,Removed from list (usually because it's a sub-city of a bigger city
CAF,CF,Central African Republic,2389853,Bangui,812407,4.36122,18.554960000000005,Global cities list from geonames.org,NA
CAF,CF,Central African Republic,2388873,Bimbo,348802,4.25671,18.41583,Global cities list from geonames.org,Removed from list (usually because it's a sub-city of a bigger city
CAN,CA,Canada,5907364,Brampton,593638,43.68341,-79.76633,Global cities list from geonames.org,NA
CAN,CA,Canada,5913490,Calgary,1019942,51.04473309999999,-114.0718831,Google API geocode,NA
CAN,CA,Canada,5946768,Edmonton,1010899,53.5460983,-113.4937266,Google API geocode,NA
CAN,CA,Canada,5950268,Etobicoke,365000,43.64415,-79.56985,Global cities list from geonames.org,NA
CAN,CA,Canada,6324729,Halifax,439819,44.64269,-63.57688,Global cities list from geonames.org,NA
CAN,CA,Canada,5969782,Hamilton,519949,43.2557206,-79.8711024,Google API geocode,NA
CAN,CA,Canada,6050610,Laval,422993,45.569950000000006,-73.692,Global cities list from geonames.org,NA
CAN,CA,Canada,6058560,London,346765,42.98339,-81.23304,Global cities list from geonames.org,NA
CAN,CA,Canada,6066513,Markham,328966,43.86682,-79.2663,Global cities list from geonames.org,NA
CAN,CA,Canada,6075357,Mississauga,668549,43.5789,-79.65829999999998,Global cities list from geonames.org,NA
CAN,CA,Canada,6077243,Montréal,1762949,45.5018869,-73.56739189999999,Google API geocode,NA
CAN,CA,Canada,6094817,Ottawa,812129,45.4215296,-75.69719309999999,Google API geocode,NA
CAN,CA,Canada,6325494,Québec,531902,46.8130816,-71.20745959999999,Google API geocode,NA
CAN,CA,Canada,6159905,Surrey,394976,49.106350000000006,-122.82509,Global cities list from geonames.org,NA
CAN,CA,Canada,6167865,Toronto,2600000,43.65196306,-79.38253429,Global cities list from geonames.org,NA
CAN,CA,Canada,6173331,Vancouver,600000,49.2827291,-123.1207375,Google API geocode,NA
CAN,CA,Canada,6173577,Vaughan,306233,43.8361,-79.49827,Global cities list from geonames.org,NA
CAN,CA,Canada,6183235,Winnipeg,749607,49.88439999999999,-97.14704,Global cities list from geonames.org,NA
CHE,CH,Switzerland,2657896,Zürich,341730,47.3768866,8.541694,Google API geocode,NA
CHL,CL,Chile,3899539,Antofagasta,352638,-23.65236,-70.3954,Global cities list from geonames.org,NA
CHL,CL,Chile,3875024,Puente Alto,568106,-33.6186082,-70.5906057,Google API geocode,NA
CHL,CL,Chile,3871336,Santiago,4837295,-33.4488897,-70.6692655,Google API geocode,NA
CHN,CN,China,1529660,Aksu,535657,41.1676299,80.26338,Google API geocode,NA
CHN,CN,China,1789065,Ankang,870126,32.6848599,109.02932,Google API geocode,NA
CHN,CN,China,1817993,Anqing,804493,30.5429399,117.06354,Google API geocode,NA
CHN,CN,China,1817990,Anqiu,364208,36.4784199,119.21784,"Manually checked, chose the google api value",NA
CHN,CN,China,2038632,Anshan,1450000,41.1077699,122.9946,Google API geocode,NA
CHN,CN,China,1817968,Anshun,765313,26.2536699,105.9462,Google API geocode,NA
CHN,CN,China,1785294,Anyang,1146839,36.097524,114.3930629,Google API geocode,NA
CHN,CN,China,2038569,Baicheng,316970,45.61751,122.83302,Global cities list from geonames.org,NA
CHN,CN,China,1816269,Baise,686078,23.89013,106.62684,Global cities list from geonames.org,NA
CHN,CN,China,1909733,Banan,508703,29.37861,106.54,Global cities list from geonames.org,Removed from list (usually because it's a sub-city of a bigger city
CHN,CN,China,1816971,Baoding,2739887,38.857956367346,115.490255355835,Manually searched on google,lat/lon manually updated
CHN,CN,China,10942359,Baoji,1437802,34.3631699,107.23775,Google API geocode,NA
CHN,CN,China,1281673,Baoshan,935618,25.1120499,99.16181,Google API geocode,NA
CHN,CN,China,2038432,Baotou,2150000,40.6578099,109.84021,Google API geocode,NA
CHN,CN,China,1816858,Basuo,444458,19.10267,108.66565,Global cities list from geonames.org,NA
CHN,CN,China,11838258,Bayan Nur,1760000,40.74143,107.38599,Global cities list from geonames.org,NA
CHN,CN,China,1816705,Beihai,525329,21.4811199,109.12008,Google API geocode,NA
CHN,CN,China,1816670,Beijing,18960744,39.904211,116.407395,Google API geocode,NA
CHN,CN,China,2038365,Bei’an,436444,48.2425101317284,126.500710088433,Manually searched on google,lat/lon manually updated
CHN,CN,China,1816440,Bengbu,972784,32.9154799,117.38932,"Manually checked, chose the google api value",NA
CHN,CN,China,2038300,Benxi,987717,41.2941299,123.7668599,Google API geocode,NA
CHN,CN,China,1816373,Bijie,1137383,27.2984699,105.30504,Google API geocode,NA
CHN,CN,China,1816336,Binzhou,682717,37.3821099,117.97279,"Manually checked, chose the google api value",NA
CHN,CN,China,1816234,Bozhou,1409436,33.8446099,115.77931,Google API geocode,NA
CHN,CN,China,1816080,Cangzhou,527681,38.31123999999999,116.85334,Global cities list from geonames.org,NA
CHN,CN,China,2038180,Changchun,4714996,43.879999999999995,125.32277999999998,Manually checked - chose the geoname value,NA
CHN,CN,China,1791121,Changde,1457419,29.0315799,111.69854,Google API geocode,NA
CHN,CN,China,1815577,Changsha,3093980,28.2277799,112.93886,"Manually checked, chose the google api value",NA
CHN,CN,China,7283386,Changshu,1677050,31.64615,120.74221,Global cities list from geonames.org,NA
CHN,CN,China,1815482,Changyi,302072,36.8588399,119.39862,Google API geocode,NA
CHN,CN,China,1808956,Changzhi,1214940,36.1958099,113.11649,Google API geocode,NA
CHN,CN,China,1815456,Changzhou,3290918,31.77359,119.95401,Manually checked - chose the geoname value,NA
CHN,CN,China,2038120,Chaoyang,410005,41.57028,120.45861,Manually checked - chose the geoname value,NA
CHN,CN,China,1815395,Chaozhou,1750945,23.653960000000005,116.62262,Global cities list from geonames.org,NA
CHN,CN,China,2038087,Chengde,449325,40.951899999999995,117.95883,Global cities list from geonames.org,NA
CHN,CN,China,1815286,Chengdu,13568357,30.6605072297582,104.063358306885,Manually searched on google,lat/lon manually updated
CHN,CN,China,1815059,Chenzhou,822534,25.8,113.03333,Manually checked - chose the geoname value,NA
CHN,CN,China,2038067,Chifeng,346654,42.26833000000001,118.96361000000002,Manually checked - chose the geoname value,NA
CHN,CN,China,1814934,Chizhou,615274,30.66469,117.4914191,Google API geocode,NA
CHN,CN,China,1814906,Chongqing,7457599,29.56026,106.55771,Manually checked - chose the geoname value,NA
CHN,CN,China,12159964,Chongzuo,384905,22.38161,107.3683,Global cities list from geonames.org,Removed from list (usually because it's a sub-city of a bigger city
CHN,CN,China,1814757,Chuzhou,782671,32.32194,118.29778,Global cities list from geonames.org,NA
CHN,CN,China,1806602,Cixi,1457510,30.1696399,121.26647,Google API geocode,NA
CHN,CN,China,1814087,Dalian,4913879,38.9174829092501,121.629638671875,Manually searched on google,lat/lon manually updated
CHN,CN,China,2037886,Dandong,631973,40.12917000000001,124.39472,Manually checked - chose the geoname value,NA
CHN,CN,China,2037860,Daqing,1604027,46.58757989999999,125.10307,"Manually checked, chose the google api value",NA
CHN,CN,China,2037799,Datong,1850000,40.0763699,113.30001,Google API geocode,NA
CHN,CN,China,1813325,Dazhou,1589435,31.2106,107.46308,Global cities list from geonames.org,NA
CHN,CN,China,1812961,Deyang,735070,31.1267899,104.3979,Google API geocode,NA
CHN,CN,China,1812955,Dezhou,679535,37.4354999,116.35927,Google API geocode,NA
CHN,CN,China,1812749,Dingxi,420614,35.570879999999995,104.62303,Global cities list from geonames.org,NA
CHN,CN,China,1812545,Dongguan,9644871,23.0206699,113.75179,Google API geocode,NA
CHN,CN,China,1812101,Dongying,998968,37.4465160478335,118.581627830494,Manually searched on google,lat/lon manually updated
CHN,CN,China,6642286,E’zhou,668727,30.39607,114.88655,Manually checked - chose the geoname value,NA
CHN,CN,China,7304020,Fenghuang,370000,27.9519312854659,109.592258447593,Manually searched on google,lat/lon manually updated
CHN,CN,China,1811103,Foshan,9042509,23.02677,113.13148,Global cities list from geonames.org,NA
CHN,CN,China,2037355,Fushun,1400646,41.87970989999999,123.95722,Google API geocode,NA
CHN,CN,China,2037346,Fuxin,689050,42.01556,121.65889,Global cities list from geonames.org,NA
CHN,CN,China,1810845,Fuyang,1768947,32.9,115.81667,Manually checked - chose the geoname value,NA
CHN,CN,China,1810821,Fuzhou,3740000,26.0742099,119.29647,Google API geocode,NA
CHN,CN,China,1810638,Ganzhou,1977253,25.846639999999997,114.9326,Global cities list from geonames.org,NA
CHN,CN,China,1810458,Gaomi,391986,36.3825699,119.75568,Google API geocode,NA
CHN,CN,China,1806466,Guangyuan,516424,32.4354899,105.84357,Google API geocode,NA
CHN,CN,China,1809858,Guangzhou,16096724,23.1290799,113.26436,Google API geocode,NA
CHN,CN,China,1799194,Guang’an,858159,30.4559599,106.63322,Google API geocode,NA
CHN,CN,China,1802875,Guankou,1380000,28.1637799,113.64317,Google API geocode,NA
CHN,CN,China,1809532,Guigang,1086327,23.1130599,109.59764,Google API geocode,NA
CHN,CN,China,1809498,Guilin,1572300,25.2736099,110.29002,Google API geocode,NA
CHN,CN,China,1809461,Guiyang,3037159,26.6475899,106.63019,"Manually checked, chose the google api value",NA
CHN,CN,China,1809412,Guli,536000,28.8885099,120.0473099,Google API geocode,NA
CHN,CN,China,1809152,Guyuan,411854,36.00667,106.28083,Global cities list from geonames.org,NA
CHN,CN,China,1809078,Haikou,2873358,20.0442199,110.19989,"Manually checked, chose the google api value",NA
CHN,CN,China,1808963,Handan,1358318,36.60999,114.48764,Manually checked - chose the geoname value,NA
CHN,CN,China,1808926,Hangzhou,9236032,30.2741499,120.15515,Google API geocode,NA
CHN,CN,China,1808857,Hanzhong,1006557,33.075070000000004,107.02214,Global cities list from geonames.org,NA
CHN,CN,China,2037013,Harbin,5242897,45.7567307,126.6424173,Google API geocode,NA
CHN,CN,China,1808770,Hebi,634721,35.899170000000005,114.1925,Global cities list from geonames.org,NA
CHN,CN,China,12358476,Hechi,330131,24.692850000000004,108.08376,Global cities list from geonames.org,NA
CHN,CN,China,1808212,Hechuan,377213,29.9728799,106.27679,Google API geocode,NA
CHN,CN,China,1808722,Hefei,5050000,31.86389,117.28083,Manually checked - chose the geoname value,NA
CHN,CN,China,2036986,Hegang,743307,47.3498899,130.29785,Google API geocode,NA
CHN,CN,China,1808392,Hengshui,522147,37.73908,115.68348,Global cities list from geonames.org,NA
CHN,CN,China,1808370,Hengyang,1075516,26.8931586,112.5719704,"Manually checked, chose the google api value",NA
CHN,CN,China,1786112,Heyuan,463907,23.73333,114.68332999999998,Global cities list from geonames.org,NA
CHN,CN,China,1808198,Heze,1346717,35.2336299,115.48115,Google API geocode,NA
CHN,CN,China,7576887,Hezhou,1005490,24.4034599,111.56655,Google API geocode,NA
CHN,CN,China,2036892,Hohhot,2350000,40.810559999999995,111.65222,Manually checked - chose the geoname value,NA
CHN,CN,China,1281019,Hotan,408894,37.1075,79.93548,Global cities list from geonames.org,NA
CHN,CN,China,1797873,Huai'an,2494013,33.551052,119.113185,"Manually checked, chose the google api value",NA
CHN,CN,China,1807700,Huaibei,1113321,33.9547899,116.7983399,Google API geocode,NA
CHN,CN,China,1807689,Huaihua,552622,27.56337,110.00404,Global cities list from geonames.org,NA
CHN,CN,China,1807681,Huainan,1666826,32.6254899,116.9998,Google API geocode,NA
CHN,CN,China,8537264,Huanggang,366769,30.45143,114.87035,Global cities list from geonames.org,NA
CHN,CN,China,1792359,Huangshan,460786,29.71139,118.3125,Global cities list from geonames.org,NA
CHN,CN,China,1807234,Huangshi,688090,30.1995299,115.0389,"Manually checked, chose the google api value",NA
CHN,CN,China,1806776,Huizhou,2900113,23.1125099,114.41552,Google API geocode,NA
CHN,CN,China,12548253,Hulunbuir,349400,49.21141,119.75582,Global cities list from geonames.org,NA
CHN,CN,China,11694038,Huocheng,360000,44.05305,80.87172999999999,Global cities list from geonames.org,NA
CHN,CN,China,1806535,Huzhou,1015937,30.8930499,120.08805,Google API geocode,NA
CHN,CN,China,2036581,Jiamusi,549549,46.7997599,130.31882,Google API geocode,NA
CHN,CN,China,1806299,Jiangmen,1795459,22.583329999999997,113.08333,Manually checked - chose the geoname value,NA
CHN,CN,China,1815251,Jiangyin,1779515,31.9191899,120.28432,Google API geocode,NA
CHN,CN,China,1809061,Jiaojiang,470804,28.69844,121.47331,Manually checked - chose the geoname value,NA
CHN,CN,China,1806096,Jiaozhou,619266,36.2644499,120.0335399,Google API geocode,NA
CHN,CN,China,1805987,Jiaozuo,865413,35.2156299,113.24201,Google API geocode,NA
CHN,CN,China,1805953,Jiaxing,1180000,30.753924,120.758543,Google API geocode,NA
CHN,CN,China,1797121,Jieyang,1899394,23.5418,116.36581,Manually checked - chose the geoname value,NA
CHN,CN,China,2036502,Jilin,1895865,43.8378399,126.54944,Google API geocode,NA
CHN,CN,China,1805753,Jinan,4335989,36.6507925250347,117.112884521484,Manually searched on google,lat/lon manually updated
CHN,CN,China,1805741,Jincheng,476945,35.50222,112.83278,Global cities list from geonames.org,NA
CHN,CN,China,1805680,Jingdezhen,473561,29.2947,117.20789,Global cities list from geonames.org,NA
CHN,CN,China,1805611,Jingmen,632954,31.0354599,112.19945,Google API geocode,NA
CHN,CN,China,1805540,Jingzhou,1052282,30.35028,112.19028,Manually checked - chose the geoname value,NA
CHN,CN,China,1805528,Jinhua,1463990,29.10678,119.64421000000002,Global cities list from geonames.org,NA
CHN,CN,China,1805518,Jining,1241012,35.4145899,116.58724,Google API geocode,NA
CHN,CN,China,1797658,Jinjiang,1416151,24.81978,118.57415,Manually checked - chose the geoname value,NA
CHN,CN,China,10942283,Jinzhong,1226617,37.6870199,112.75278,Google API geocode,NA
CHN,CN,China,2036427,Jinzhou,604269,41.0951499,121.12703,Google API geocode,NA
CHN,CN,China,1805179,Jiujiang,1164268,29.70475,116.00206,Manually checked - chose the geoname value,NA
CHN,CN,China,1279945,Jiuquan,428346,39.74318,98.51736,Global cities list from geonames.org,NA
CHN,CN,China,2036389,Jixi,403759,45.2952399,130.96954,Google API geocode,NA
CHN,CN,China,1805029,Jizhou,362013,37.55054,115.56871,Global cities list from geonames.org,NA
CHN,CN,China,1806445,Ji’an,538699,27.117160000000005,114.97927,Global cities list from geonames.org,NA
CHN,CN,China,1804879,Kaifeng,1451741,34.7972599,114.30731,Google API geocode,NA
CHN,CN,China,1280849,Kashgar,506640,39.470659999999995,75.98951000000001,Global cities list from geonames.org,NA
CHN,CN,China,1529376,Korla,549324,41.76055000000001,86.15230999999999,Global cities list from geonames.org,NA
CHN,CN,China,1804651,Kunming,3855346,25.03889,102.71833,Manually checked - chose the geoname value,NA
CHN,CN,China,1785623,Kunshan,2092496,31.37762,120.95431,Manually checked - chose the geoname value,NA
CHN,CN,China,1804609,Laibin,910282,23.74743,109.22222,Global cities list from geonames.org,NA
CHN,CN,China,1804591,Laiwu,989535,36.2031699,117.65992,Google API geocode,NA
CHN,CN,China,1794479,Laixi,341470,36.8880799,120.51777,Google API geocode,NA
CHN,CN,China,1804540,Langfang,868066,39.5377499,116.68376,Google API geocode,NA
CHN,CN,China,1804430,Lanzhou,3000000,36.0613799,103.83417,Google API geocode,NA
CHN,CN,China,1804153,Leshan,662814,29.56227,103.76386,Global cities list from geonames.org,NA
CHN,CN,China,2036434,Lianshan,313247,40.764320000000005,120.85327,Global cities list from geonames.org,NA
CHN,CN,China,10859300,Lianyungang,2001009,34.5966899,119.22295,Google API geocode,NA
CHN,CN,China,1803834,Liaocheng,1229768,36.4570199,115.9854899,Google API geocode,NA
CHN,CN,China,2036113,Liaoyang,687890,41.27194,123.17306,Manually checked - chose the geoname value,NA
CHN,CN,China,1803590,Lincang,323708,23.87972,100.09455,Global cities list from geonames.org,NA
CHN,CN,China,1803567,Linfen,959198,36.0882199,111.51962,Google API geocode,NA
CHN,CN,China,1803318,Linyi,2743843,35.1046499,118.3564599,"Manually checked, chose the google api value",NA
CHN,CN,China,1803245,Lishui,451418,28.460419999999996,119.91029000000002,Global cities list from geonames.org,NA
CHN,CN,China,8533133,Liupanshui,1320825,26.5933599,104.83023,Google API geocode,NA
CHN,CN,China,1803300,Liuzhou,1436599,24.324050000000003,109.40698,Manually checked - chose the geoname value,NA
CHN,CN,China,2036109,Longshan,465249,42.88545,125.1367,Global cities list from geonames.org,NA
CHN,CN,China,1802276,Longyan,1025087,25.0750399,117.01722,Google API geocode,NA
CHN,CN,China,1802238,Loudi,497171,27.73444,111.99444,Global cities list from geonames.org,NA
CHN,CN,China,1802204,Luancheng,597130,37.884519999999995,114.64629,Global cities list from geonames.org,NA
CHN,CN,China,1801934,Luohe,1294974,33.56394,114.04272,Global cities list from geonames.org,NA
CHN,CN,China,1801792,Luoyang,1390581,34.6181299,112.45402,"Manually checked, chose the google api value",NA
CHN,CN,China,1801640,Luzhou,998900,28.8903,105.42575,Manually checked - chose the geoname value,NA
CHN,CN,China,1802206,Lu’an,1644344,31.73561,116.51688,Global cities list from geonames.org,NA
CHN,CN,China,1801180,Maoming,1307802,21.66625,110.91364000000002,Global cities list from geonames.org,NA
CHN,CN,China,1801620,Ma’anshan,741531,31.685789999999997,118.51008,Global cities list from geonames.org,NA
CHN,CN,China,1800818,Meishan,1107742,30.0756299,103.84851,Google API geocode,NA
CHN,CN,China,1800779,Meizhou,992351,24.288589999999996,116.11767999999999,Global cities list from geonames.org,NA
CHN,CN,China,1800627,Mianyang,1550000,31.4675099,104.6795999,Google API geocode,NA
CHN,CN,China,12492662,"Mianzhu, Deyang, Sichuan",510000,31.337860000000006,104.22057,Global cities list from geonames.org,NA
CHN,CN,China,2035715,Mudanjiang,665915,44.5526899,129.63244,Google API geocode,NA
CHN,CN,China,1800163,Nanchang,2357839,28.6820199,115.8579399,Google API geocode,NA
CHN,CN,China,1800146,Nanchong,1858875,30.8379015,106.1105999,"Manually checked, chose the google api value",NA
CHN,CN,China,1799962,Nanjing,9314685,32.0583799,118.79647,Google API geocode,NA
CHN,CN,China,1799869,Nanning,3839800,22.8167299,108.3669,"Manually checked, chose the google api value",NA
CHN,CN,China,1799846,Nanping,467875,26.645,118.17361,Global cities list from geonames.org,NA
CHN,CN,China,1799722,Nantong,2273326,31.9795799,120.89371,"Manually checked, chose the google api value",NA
CHN,CN,China,1799629,Nanyang,1811812,32.9907299,112.52851,Google API geocode,NA
CHN,CN,China,1799491,Neijiang,1251095,29.5801499,105.05844,Google API geocode,NA
CHN,CN,China,1799397,Ningbo,3731203,29.87819,121.54945,Global cities list from geonames.org,NA
CHN,CN,China,1806097,Ningde,429260,26.66167,119.52277999999998,Global cities list from geonames.org,NA
CHN,CN,China,8347664,Ordos,1940653,39.6086,109.78157,Global cities list from geonames.org,Removed from list (usually because it's a sub-city of a bigger city
CHN,CN,China,2035513,Panshan,625040,41.18806,122.04944,Global cities list from geonames.org,NA
CHN,CN,China,6929460,Panzhihua,787177,26.5822799,101.71872,Google API geocode,NA
CHN,CN,China,1798827,Pingdingshan,979130,33.73847000000001,113.30119,Manually checked - chose the geoname value,NA
CHN,CN,China,1798821,Pingdu,542234,36.78444,119.94639,Global cities list from geonames.org,NA
CHN,CN,China,1798760,Pingliang,504848,35.539170000000006,106.68611,Global cities list from geonames.org,NA
CHN,CN,China,1798654,Pingxiang,893550,27.6228899,113.85427,Google API geocode,NA
CHN,CN,China,1785716,Pizhou,343421,34.311389999999996,117.95028,Manually checked - chose the geoname value,NA
CHN,CN,China,1802940,Puning,874954,23.2973399,116.1657299,Google API geocode,NA
CHN,CN,China,1798449,Putian,1539389,25.43944,119.01028,Global cities list from geonames.org,NA
CHN,CN,China,1798425,Puyang,3590000,29.45679,119.88872,Global cities list from geonames.org,NA
CHN,CN,China,1797929,Qingdao,7172451,36.0662299,120.38299,Google API geocode,NA
CHN,CN,China,12359313,Qingyang,377528,35.70976,107.64455,Global cities list from geonames.org,NA
CHN,CN,China,1797945,Qingyuan,1738424,23.7,113.03333,Global cities list from geonames.org,NA
CHN,CN,China,1797595,Qinhuangdao,759718,39.93167,119.58832999999998,Global cities list from geonames.org,NA
CHN,CN,China,1797551,Qinzhou,1296300,21.964061746115,108.619778426625,Manually searched on google,lat/lon manually updated
CHN,CN,China,1806488,Qionghai,528238,19.242499999999996,110.46417,Global cities list from geonames.org,NA
CHN,CN,China,2035265,Qiqihar,882364,47.3543099,123.91796,Google API geocode,NA
CHN,CN,China,2035261,Qitaihe,345033,45.76800000000001,130.9953,Global cities list from geonames.org,NA
CHN,CN,China,1797353,Quanzhou,1469157,24.91389,118.58583,Manually checked - chose the geoname value,NA
CHN,CN,China,1797318,Qujing,1408500,25.4900199,103.79625,Google API geocode,NA
CHN,CN,China,1797264,Quzhou,902767,28.959439999999997,118.86861,Global cities list from geonames.org,NA
CHN,CN,China,9072919,Rizhao,661943,35.4164599,119.52719,Google API geocode,NA
CHN,CN,China,1797063,Rui’an,927383,27.77605,120.65859,Global cities list from geonames.org,NA
CHN,CN,China,1796669,Sanmenxia,669307,34.77472,111.18139,Global cities list from geonames.org,NA
CHN,CN,China,1796663,Sanming,602166,26.248609999999996,117.61861,Global cities list from geonames.org,NA
CHN,CN,China,1796556,Sanya,1031396,18.25435,109.50947,Global cities list from geonames.org,NA
CHN,CN,China,1796236,Shanghai,22315474,31.230416,121.473701,Google API geocode,NA
CHN,CN,China,1796068,Shangluo,531696,33.86667,109.93056,Manually checked - chose the geoname value,NA
CHN,CN,China,1783934,Shangqiu,1536392,34.449999999999996,115.65,Manually checked - chose the geoname value,NA
CHN,CN,China,1787858,Shangrao,1116486,28.45179,117.94287,Global cities list from geonames.org,NA
CHN,CN,China,1817720,Shangyu,770000,30.0322699,120.86858,Google API geocode,NA
CHN,CN,China,1795940,Shantou,3838900,23.3534999,116.68221,Google API geocode,NA
CHN,CN,China,1795928,Shanwei,491766,22.78199,115.3475,Global cities list from geonames.org,NA
CHN,CN,China,1795874,Shaoguan,1028460,24.8103899,113.59723,Google API geocode,NA
CHN,CN,China,1795855,Shaoxing,2300000,30.00237,120.57864,Global cities list from geonames.org,NA
CHN,CN,China,1816920,Shaoyang,753194,27.2388999,111.4677,Google API geocode,NA
CHN,CN,China,2034937,Shenyang,7050000,41.804778,123.432968,Google API geocode,NA
CHN,CN,China,1795565,Shenzhen,17494398,22.5428599,114.05956,Google API geocode,NA
CHN,CN,China,1529195,Shihezi,572772,44.3065299,86.07893000000001,Google API geocode,NA
CHN,CN,China,1795270,Shijiazhuang,3938513,38.0427599,114.5143,Google API geocode,NA
CHN,CN,China,1795060,Shiqi,342306,22.516820000000003,113.38521,Global cities list from geonames.org,Removed from list (usually because it's a sub-city of a bigger city
CHN,CN,China,1794903,Shiyan,3460000,32.6291799,110.79801,Google API geocode,NA
CHN,CN,China,12324556,Shizuishan,472472,38.980819999999994,106.3892,Global cities list from geonames.org,NA
CHN,CN,China,1794794,Shouguang,473620,36.879999999999995,118.7375,Manually checked - chose the geoname value,NA
CHN,CN,China,2034786,Shuangyashan,600000,46.67686,131.13273,Global cities list from geonames.org,NA
CHN,CN,China,2034714,Siping,555609,43.16143,124.37785,Global cities list from geonames.org,NA
CHN,CN,China,1793900,Suining,656760,30.5328599,105.59273,Google API geocode,NA
CHN,CN,China,1793879,Suizhou,618582,31.6901299,113.38262,Google API geocode,NA
CHN,CN,China,1793771,Suqian,1437685,33.94917,118.29583,Global cities list from geonames.org,NA
CHN,CN,China,1886760,Suzhou,6715559,31.304080000000003,120.59538,Manually checked - chose the geoname value,NA
CHN,CN,China,1793703,Taicang,831113,31.44778,121.09389,Global cities list from geonames.org,NA
CHN,CN,China,1793511,Taiyuan,4303673,37.8705899,112.55067,Google API geocode,NA
CHN,CN,China,1793505,Taizhou,1607108,32.49069,119.90812,Manually checked - chose the geoname value,NA
CHN,CN,China,1793724,Tai’an,1735425,36.18528,117.12,Global cities list from geonames.org,NA
CHN,CN,China,1793424,Tanggu,535298,39.02111000000001,117.64694,Global cities list from geonames.org,NA
CHN,CN,China,1793346,Tangshan,3372102,39.6304499,118.18022,Google API geocode,NA
CHN,CN,China,1792947,Tianjin,11090314,39.14222,117.17667,Manually checked - chose the geoname value,NA
CHN,CN,China,1792892,Tianshui,1212791,34.5808499,105.72486,Google API geocode,NA
CHN,CN,China,2034439,Tieling,333907,42.29306,123.84139,Global cities list from geonames.org,NA
CHN,CN,China,7064006,Tongchuan,417740,34.8988,108.95056,Global cities list from geonames.org,NA
CHN,CN,China,2034414,Tonghua,510000,41.71972,125.92639,Global cities list from geonames.org,NA
CHN,CN,China,1792621,Tongling,402062,30.95,117.78333,Global cities list from geonames.org,NA
CHN,CN,China,1787824,Tongshan,329661,34.18045,117.15707,Global cities list from geonames.org,NA
CHN,CN,China,1791779,Wanning,545992,18.79931,110.3841,Global cities list from geonames.org,NA
CHN,CN,China,1791748,Wanxian,859662,30.81601,108.37407,Global cities list from geonames.org,NA
CHN,CN,China,12358576,Wanzhou,723215,30.76451,108.39586,Global cities list from geonames.org,NA
CHN,CN,China,1791681,Weifang,2044028,36.7068599,119.16176,"Manually checked, chose the google api value",NA
CHN,CN,China,1791673,Weihai,844310,37.5134799,122.12171,Google API geocode,NA
CHN,CN,China,1791636,Weinan,1199290,34.4999699,109.51015,Google API geocode,NA
CHN,CN,China,1791544,Wenchang,560894,19.55158,110.80279,Global cities list from geonames.org,Removed from list (usually because it's a sub-city of a bigger city
CHN,CN,China,8505006,Wenshan City,450000,23.36306,104.25047000000001,Global cities list from geonames.org,NA
CHN,CN,China,1791388,Wenzhou,2650000,27.9949199,120.69939,Google API geocode,NA
CHN,CN,China,1791247,Wuhan,10392693,30.583329999999997,114.26667,Manually checked - chose the geoname value,NA
CHN,CN,China,1791236,Wuhu,1598165,31.3524599,118.43313,Google API geocode,NA
CHN,CN,China,1803936,Wuwei,1010295,37.9281999,102.63797,Google API geocode,NA
CHN,CN,China,1790923,Wuxi,4396835,31.56887,120.28857000000001,Manually checked - chose the geoname value,NA
CHN,CN,China,1790840,Wuzhou,761948,23.48053999999999,111.28848,Global cities list from geonames.org,NA
CHN,CN,China,1790645,Xiamen,4617251,24.4795099,118.0894799,Google API geocode,NA
CHN,CN,China,1790492,Xiangtan,959303,27.8297499,112.94411,"Manually checked, chose the google api value",NA
CHN,CN,China,1790587,Xiangyang,1294733,32.0089999,112.12255,"Manually checked, chose the google api value",NA
CHN,CN,China,1790396,Xianning,512517,29.8412599,114.32245,Google API geocode,NA
CHN,CN,China,1790353,Xianyang,1034081,34.337779999999995,108.70261,Global cities list from geonames.org,NA
CHN,CN,China,1790254,Xiaogan,908266,30.9248299,113.91645,Google API geocode,NA
CHN,CN,China,1789647,Xichang,481796,27.8944899,102.26305,Google API geocode,NA
CHN,CN,China,1788927,Xingtai,798770,37.0705499,114.50443,Google API geocode,NA
CHN,CN,China,1807566,Xingyi,322890,25.0919199,104.8955299,Google API geocode,NA
CHN,CN,China,1788852,Xining,1677177,36.62554000000001,101.75739,Global cities list from geonames.org,NA
CHN,CN,China,1788572,Xinxiang,1047088,35.19033000000001,113.80151,Manually checked - chose the geoname value,NA
CHN,CN,China,1788534,Xinyang,1230042,32.1471399,114.09279,"Manually checked, chose the google api value",NA
CHN,CN,China,1789262,Xinyi,300511,34.3692699,118.35548,Google API geocode,NA
CHN,CN,China,1788508,Xinyu,839488,27.8177599,114.91713,Google API geocode,NA
CHN,CN,China,1788450,Xinzhou,544683,38.40917,112.73333,Global cities list from geonames.org,NA
CHN,CN,China,1790630,Xi’an,9600000,34.259618520089,108.938264856599,Manually searched on google,lat/lon manually updated
CHN,CN,China,2033574,Xuanhua,373422,40.61205,115.06463,Global cities list from geonames.org,NA
CHN,CN,China,1788081,Xuanzhou,774332,30.9407799,118.75866,Google API geocode,NA
CHN,CN,China,1788046,Xuchang,1265536,34.03189,113.86299,Global cities list from geonames.org,NA
CHN,CN,China,10630003,Xuzhou,1253991,34.2043999,117.28577,Google API geocode,NA
CHN,CN,China,1787816,Ya'an,612056,29.985209999999995,102.999,Global cities list from geonames.org,NA
CHN,CN,China,1787746,Yancheng,1615717,33.3495099,120.16164,Google API geocode,NA
CHN,CN,China,1806408,Yangjiang,1292987,21.8582899,111.98256,Google API geocode,NA
CHN,CN,China,1787351,Yangquan,731228,37.8566799,113.58047,Google API geocode,NA
CHN,CN,China,1787227,Yangzhou,1584237,32.3935799,119.41269,Google API geocode,NA
CHN,CN,China,2033467,Yanji,326957,42.88825,129.50241000000003,Global cities list from geonames.org,NA
CHN,CN,China,1787093,Yantai,2227733,37.4635299,121.44801,Google API geocode,NA
CHN,CN,China,1787765,Yan’an,475234,36.59889,109.49167,Global cities list from geonames.org,NA
CHN,CN,China,1786770,Yibin,836340,28.7512999,104.6417,Google API geocode,NA
CHN,CN,China,1786764,Yichang,1350150,30.69177969999999,111.2863313,Google API geocode,NA
CHN,CN,China,1786746,Yichun,1045952,27.8144299,114.41612,Google API geocode,NA
CHN,CN,China,1786657,Yinchuan,1487579,38.46806,106.27306,Manually checked - chose the geoname value,NA
CHN,CN,China,2033370,Yingkou,591159,40.6659899,122.23458,Google API geocode,NA
CHN,CN,China,1814870,Yiwu,1481384,29.315060000000003,120.07676,Global cities list from geonames.org,NA
CHN,CN,China,1786760,Yixing,1285785,31.36059,119.82016,Manually checked - chose the geoname value,NA
CHN,CN,China,1808316,Yiyang,1249807,28.5539103,112.3551607,"Manually checked, chose the google api value",NA
CHN,CN,China,1786217,Yongzhou,1020715,26.4203399,111.61225,Google API geocode,NA
CHN,CN,China,1927639,Yueyang,991465,29.3572799,113.12919,"Manually checked, chose the google api value",NA
CHN,CN,China,1785781,Yulin,1056743,22.6305,110.14686,Manually checked - chose the geoname value,NA
CHN,CN,China,1785738,Yuncheng,680036,35.0262799,111.00699,Google API geocode,NA
CHN,CN,China,1785725,Yunfu,2612800,22.92787,112.03809,Global cities list from geonames.org,NA
CHN,CN,China,12277239,Yunlong,345393,34.252810000000004,117.25167,Global cities list from geonames.org,NA
CHN,CN,China,1785453,Zaozhuang,899753,34.8107099,117.32196,"Manually checked, chose the google api value",NA
CHN,CN,China,1785412,Zhabei,840000,31.258609999999997,121.45972,Global cities list from geonames.org,Removed from list (usually because it's a sub-city of a bigger city
CHN,CN,China,1787331,Zhangjiagang,1432044,31.8754699,120.5555,Google API geocode,NA
CHN,CN,China,1813171,Zhangjiajie,441804,29.12944,110.47833,Global cities list from geonames.org,NA
CHN,CN,China,2033196,Zhangjiakou,692602,40.7686911,114.8855792,Google API geocode,NA
CHN,CN,China,1785036,Zhangye,507433,38.93417,100.45167,Global cities list from geonames.org,NA
CHN,CN,China,1785018,Zhangzhou,589831,24.5134699,117.64725,Google API geocode,NA
CHN,CN,China,1784990,Zhanjiang,1400709,21.2713399,110.35894,"Manually checked, chose the google api value",NA
CHN,CN,China,1784853,Zhaoqing,1553109,23.04893,112.46091,Global cities list from geonames.org,NA
CHN,CN,China,1784841,Zhaotong,787845,27.3381699,103.7168,Google API geocode,NA
CHN,CN,China,1784658,Zhengzhou,4253913,34.7472499,113.62493,Google API geocode,NA
CHN,CN,China,1784642,Zhenjiang,950516,32.1895899,119.425,Google API geocode,NA
CHN,CN,China,6986104,Zhongshan,3841873,22.5159499,113.3926,Google API geocode,NA
CHN,CN,China,1784130,Zhoukou,505171,33.63333000000001,114.63333,Global cities list from geonames.org,NA
CHN,CN,China,1886762,Zhoushan,882932,29.9853899,122.20778,Google API geocode,NA
CHN,CN,China,7602670,Zhu Cheng City,1000000,35.995020000000004,119.40259,Global cities list from geonames.org,NA
CHN,CN,China,1783988,Zhucheng,499285,35.99472,119.3975,Global cities list from geonames.org,NA
CHN,CN,China,1790437,Zhuhai,2207090,22.27694,113.56778,Global cities list from geonames.org,NA
CHN,CN,China,1783873,Zhumadian,721670,32.97944,114.02944,Global cities list from geonames.org,NA
CHN,CN,China,1783763,Zhuzhou,1129687,27.8276699,113.13396,Google API geocode,NA
CHN,CN,China,1785286,Zibo,3129228,36.8197292763496,117.989730834961,Manually searched on google,lat/lon manually updated
CHN,CN,China,1783745,Zigong,1262064,29.33919989999999,104.77844,Google API geocode,NA
CHN,CN,China,1783683,Ziyang,905729,30.12858989999999,104.6279799,Google API geocode,NA
CHN,CN,China,1783621,Zunyi,2037775,27.7254499,106.92723,"Manually checked, chose the google api value",NA
CHN,CN,China,1529102,Ürümqi,3029372,43.80096,87.60046,Global cities list from geonames.org,NA
CIV,CI,Côte d'Ivoire,2293538,Abidjan,6321017,5.3599517,-4.0082563,Google API geocode,NA
CIV,CI,Côte d'Ivoire,2293521,Abobo,1340083,5.43487030688133,-4.02992248535156,Manually searched on google,lat/lon manually updated
CIV,CI,Côte d'Ivoire,2290956,Bouaké,832371,7.693849999999999,-5.03031,Global cities list from geonames.org,NA
CIV,CI,Côte d'Ivoire,2290486,Daloa,421871,6.87735,-6.450220000000001,Global cities list from geonames.org,NA
CIV,CI,Côte d'Ivoire,2286304,Korhogo,440926,9.45803,-5.62961,Global cities list from geonames.org,NA
CIV,CI,Côte d'Ivoire,2282006,San-Pédro,390654,4.74851,-6.6363,Global cities list from geonames.org,NA
CMR,CM,Cameroon,2235189,Bafoussam,373268,5.47775,10.41759,Global cities list from geonames.org,NA
CMR,CM,Cameroon,2234974,Bamenda,420445,5.959700000000001,10.145969999999998,Global cities list from geonames.org,NA
CMR,CM,Cameroon,2232593,Douala,1338082,4.0482700000000005,9.70428,Global cities list from geonames.org,NA
CMR,CM,Cameroon,2228373,Maroua,314122,10.59095,14.315930000000002,Global cities list from geonames.org,NA
CMR,CM,Cameroon,2220957,Yaoundé,1299369,3.8616853,11.5202292,Google API geocode,NA
COD,CD,"Congo, Democratic Republic of the",217831,Bukavu,816811,-2.49077,28.84281,Global cities list from geonames.org,NA
COD,CD,"Congo, Democratic Republic of the",217695,Bunia,399282,1.55941,30.252239999999997,Global cities list from geonames.org,NA
COD,CD,"Congo, Democratic Republic of the",216281,Goma,432587,-1.67409,29.22845,Global cities list from geonames.org,NA
COD,CD,"Congo, Democratic Republic of the",214481,Kananga,1247168,-5.896240000000001,22.41659,Global cities list from geonames.org,NA
COD,CD,"Congo, Democratic Republic of the",2314705,Kikwit,509367,-5.040979999999999,18.81619,Global cities list from geonames.org,NA
COD,CD,"Congo, Democratic Republic of the",2314302,Kinshasa,16000000,-4.3032527,15.310528,Google API geocode,NA
COD,CD,"Congo, Democratic Republic of the",212730,Kisangani,1181788,0.51528,25.190990000000003,Global cities list from geonames.org,NA
COD,CD,"Congo, Democratic Republic of the",922773,Kolwezi,790248,-10.71484,25.46673999999999,Global cities list from geonames.org,NA
COD,CD,"Congo, Democratic Republic of the",922741,Likasi,635768,-10.98303,26.7384,Global cities list from geonames.org,NA
COD,CD,"Congo, Democratic Republic of the",922704,Lubumbashi,2221925,-11.66089,27.47938,Global cities list from geonames.org,NA
COD,CD,"Congo, Democratic Republic of the",2593460,Masina,485167,-4.38361,15.39139,Global cities list from geonames.org,NA
COD,CD,"Congo, Democratic Republic of the",2313002,Matadi,425662,-5.83861,13.46306,Global cities list from geonames.org,NA
COD,CD,"Congo, Democratic Republic of the",2312895,Mbandaka,455011,0.04865,18.260339999999996,Global cities list from geonames.org,NA
COD,CD,"Congo, Democratic Republic of the",209228,Mbuji-Mayi,2101332,-6.13603,23.589789999999997,Global cities list from geonames.org,NA
COD,CD,"Congo, Democratic Republic of the",204953,Tshikapa,634529,-6.41621,20.799950000000003,Global cities list from geonames.org,NA
COD,CD,"Congo, Democratic Republic of the",204405,Uvira,407092,-3.3953399999999996,29.137790000000003,Global cities list from geonames.org,NA
COG,CG,Congo,2260535,Brazzaville,1982000,-4.2661299999999995,15.28318,Global cities list from geonames.org,NA
COG,CG,Congo,2255414,Pointe-Noire,1032000,-4.776090000000001,11.86352,Global cities list from geonames.org,NA
COL,CO,Colombia,3689560,Armenia,304314,4.53389,-75.68111,Global cities list from geonames.org,NA
COL,CO,Colombia,3689147,Barranquilla,1206319,10.96854,-74.78132000000001,Global cities list from geonames.org,NA
COL,CO,Colombia,3688928,Bello,392939,6.33732,-75.55795,Global cities list from geonames.org,Removed from list (usually because it's a sub-city of a bigger city
COL,CO,Colombia,3688689,Bogotá,7674366,4.60971,-74.08175,Global cities list from geonames.org,NA
COL,CO,Colombia,3688465,Bucaramanga,581130,7.1253899999999994,-73.1198,Global cities list from geonames.org,NA
COL,CO,Colombia,3688451,Buenaventura,432385,3.8830471,-77.0197212,Global cities list from geonames.org,NA
COL,CO,Colombia,3687925,Cali,2392877,3.4516467,-76.5319854,Google API geocode,NA
COL,CO,Colombia,3687238,Cartagena,914552,10.3932277,-75.4832311,Google API geocode,NA
COL,CO,Colombia,3685533,Cúcuta,777106,7.893909999999999,-72.50782000000001,Global cities list from geonames.org,NA
COL,CO,Colombia,3680656,Ibagué,529635,4.438890000000001,-75.23222000000001,Global cities list from geonames.org,NA
COL,CO,Colombia,3675443,Manizales,434403,5.06889,-75.51738,Global cities list from geonames.org,NA
COL,CO,Colombia,3674962,Medellín,1999979,6.2476376,-75.56581530000001,Google API geocode,NA
COL,CO,Colombia,3674453,Montería,490935,8.747979999999998,-75.88143,Global cities list from geonames.org,NA
COL,CO,Colombia,3673899,Neiva,357392,2.9273,-75.28189,Global cities list from geonames.org,NA
COL,CO,Colombia,3673164,Palmira,312519,3.5394399999999995,-76.30361,Global cities list from geonames.org,NA
COL,CO,Colombia,3672778,Pasto,392930,1.21361,-77.28111000000001,Global cities list from geonames.org,NA
COL,CO,Colombia,3672486,Pereira,467269,4.81333,-75.69611,Global cities list from geonames.org,NA
COL,CO,Colombia,3671916,Popayán,318059,2.43823,-76.61316000000001,Global cities list from geonames.org,NA
COL,CO,Colombia,3668605,Santa Marta,499192,11.24079,-74.19904,Global cities list from geonames.org,NA
COL,CO,Colombia,3667905,Soacha,313945,4.579370000000001,-74.21682000000001,Global cities list from geonames.org,Removed from list (usually because it's a sub-city of a bigger city
COL,CO,Colombia,3667849,Soledad,342556,10.91843,-74.76459000000001,Global cities list from geonames.org,Removed from list (usually because it's a sub-city of a bigger city
COL,CO,Colombia,3666304,Valledupar,490075,10.46314,-73.25322000000001,Global cities list from geonames.org,NA
COL,CO,Colombia,3665900,Villavicencio,321717,4.1419999999999995,-73.62664,Global cities list from geonames.org,NA
CRI,CR,Costa Rica,3621849,San José,335007,9.93333,-84.08332999999999,Global cities list from geonames.org,NA
CUB,CU,Cuba,3566067,Camagüey,347562,21.38083,-77.91694000000001,Global cities list from geonames.org,NA
CUB,CU,Cuba,3553478,Havana,2163824,23.1135925,-82.3665956,Google API geocode,NA
CUB,CU,Cuba,3556969,Holguín,319102,20.88722,-76.26306000000001,Global cities list from geonames.org,NA
CUB,CU,Cuba,3536729,Santiago de Cuba,555865,20.02083,-75.82667,Global cities list from geonames.org,NA
CZE,CZ,Czech Republic,3078610,Brno,379466,49.195220000000006,16.607960000000006,Global cities list from geonames.org,NA
CZE,CZ,Czech Republic,3067696,Prague,1165581,50.0755381,14.4378005,Google API geocode,NA
DEU,DE,Germany,2950159,Berlin,3426354,52.52000659999999,13.404954,Google API geocode,NA
DEU,DE,Germany,2949186,Bielefeld,331906,52.03333000000001,8.53333,Global cities list from geonames.org,NA
DEU,DE,Germany,2947416,Bochum,385729,51.481649999999995,7.21648,Global cities list from geonames.org,NA
DEU,DE,Germany,6941055,Bochum-Hordel,380000,51.50167999999999,7.1756,Global cities list from geonames.org,NA
DEU,DE,Germany,2946447,Bonn,330579,50.73743,7.0982068,Google API geocode,NA
DEU,DE,Germany,2944388,Bremen,546501,53.07929619999999,8.8016937,Google API geocode,NA
DEU,DE,Germany,2935517,Dortmund,588462,51.5135872,7.465298100000001,Google API geocode,NA
DEU,DE,Germany,2935022,Dresden,556227,51.050889999999995,13.738319999999996,Global cities list from geonames.org,NA
DEU,DE,Germany,2934691,Duisburg,504358,51.4344079,6.762329299999999,Google API geocode,NA
DEU,DE,Germany,2934246,Düsseldorf,620523,51.2230411,6.7824545,Google API geocode,NA
DEU,DE,Germany,2928810,Essen,593085,51.4556432,7.0115552,Google API geocode,NA
DEU,DE,Germany,2925533,Frankfurt am Main,650000,50.11552,8.684169999999998,Global cities list from geonames.org,NA
DEU,DE,Germany,2914796,Großzschocher,597493,51.301469999999995,12.32322,Global cities list from geonames.org,NA
DEU,DE,Germany,2911298,Hamburg,1845229,53.5488282,9.9871703,Google API geocode,NA
DEU,DE,Germany,2911288,Hamburg-Mitte,301231,53.55,10.01667,Global cities list from geonames.org,Removed from list (usually because it's a sub-city of a bigger city
DEU,DE,Germany,8354626,Hamburg-Nord,315514,53.58935,9.984,Global cities list from geonames.org,Removed from list (usually because it's a sub-city of a bigger city
DEU,DE,Germany,2910831,Hannover,515140,52.37052,9.733219999999998,Global cities list from geonames.org,NA
DEU,DE,Germany,2887933,Kleinzschocher,597493,51.31567999999999,12.31979,Global cities list from geonames.org,NA
DEU,DE,Germany,2886242,Köln,963395,50.937531,6.9602786,Google API geocode,NA
DEU,DE,Germany,2879139,Leipzig,504971,51.33962,12.37129,Global cities list from geonames.org,NA
DEU,DE,Germany,2873891,Mannheim,307960,49.4891,8.466940000000001,Global cities list from geonames.org,NA
DEU,DE,Germany,2867714,Munich,1260391,48.1351253,11.5819806,Google API geocode,NA
DEU,DE,Germany,2861650,Nürnberg,515543,49.45421,11.07752,Global cities list from geonames.org,NA
DEU,DE,Germany,2825297,Stuttgart,630305,48.7758459,9.1829321,Google API geocode,NA
DEU,DE,Germany,2911285,Wandsbek,411422,53.58334,10.08305,Global cities list from geonames.org,NA
DEU,DE,Germany,2805753,Wuppertal,360797,51.25627,7.14816,Global cities list from geonames.org,NA
DJI,DJ,Djibouti,223817,Djibouti,626512,11.58901,43.145030000000006,Global cities list from geonames.org,NA
DNK,DK,Denmark,2618425,Copenhagen,1153615,55.67594,12.565530000000004,Global cities list from geonames.org,NA
DOM,DO,Dominican Republic,3492914,Santiago de los Caballeros,1200000,19.4517,-70.69703,Global cities list from geonames.org,NA
DOM,DO,Dominican Republic,3492908,Santo Domingo,2201941,18.471860000000003,-69.89232,Global cities list from geonames.org,NA
DOM,DO,Dominican Republic,8601412,Santo Domingo Este,700000,18.488469999999996,-69.85707,Global cities list from geonames.org,Removed from list (usually because it's a sub-city of a bigger city
DOM,DO,Dominican Republic,7874116,Santo Domingo Oeste,701269,18.5,-70,Global cities list from geonames.org,NA
DZA,DZ,Algeria,2507480,Algiers,2364230,36.753768,3.0587561,Google API geocode,NA
DZA,DZ,Algeria,2506999,Annaba,342703,36.9,7.76667,Global cities list from geonames.org,NA
DZA,DZ,Algeria,2503769,Blida,331779,36.47004,2.8277,Global cities list from geonames.org,NA
DZA,DZ,Algeria,2501152,Constantine,448028,36.365,6.614719999999999,Global cities list from geonames.org,NA
DZA,DZ,Algeria,2485926,Oran,803329,35.6987388,-0.6349319,Google API geocode,NA
ECU,EC,Ecuador,3660689,Ambato,387309,-1.24908,-78.61675,Global cities list from geonames.org,NA
ECU,EC,Ecuador,3658666,Cuenca,636996,-2.90055,-79.00453,Global cities list from geonames.org,NA
ECU,EC,Ecuador,3658192,Eloy Alfaro,315724,-2.17579,-79.85519,Global cities list from geonames.org,Removed from list (usually because it's a sub-city of a bigger city
ECU,EC,Ecuador,3657509,Guayaquil,2723665,-2.1894128,-79.8890662,Google API geocode,NA
ECU,EC,Ecuador,3652941,Portoviejo,321800,-1.05458,-80.45445000000001,Global cities list from geonames.org,NA
ECU,EC,Ecuador,3652462,Quito,2781641,-0.22985,-78.52495,Global cities list from geonames.org,NA
ECU,EC,Ecuador,3651297,Santo Domingo de los Colorados,458580,-0.25305,-79.17535999999998,Global cities list from geonames.org,NA
EGY,EG,Egypt,353219,6th of October City,368650,29.81667,31.05,Global cities list from geonames.org,Removed from list (usually because it's a sub-city of a bigger city
EGY,EG,Egypt,361320,Al Fayyum,519047,29.309950000000004,30.841800000000003,Global cities list from geonames.org,NA
EGY,EG,Egypt,360890,Al Khuşūş,488904,30.15293,31.31501,Global cities list from geonames.org,Removed from list (usually because it's a sub-city of a bigger city
EGY,EG,Egypt,360761,Al Mansurah,621953,31.03637,31.38069,Global cities list from geonames.org,NA
EGY,EG,Egypt,360829,Al Maḩallah al Kubrá,592573,30.970629999999996,31.1669,Global cities list from geonames.org,NA
EGY,EG,Egypt,8134081,Al Qāhirah al Jadīdah,313139,30.042139999999996,31.44446,Global cities list from geonames.org,Removed from list (usually because it's a sub-city of a bigger city
EGY,EG,Egypt,361058,Alexandria,5263542,31.2000924,29.9187387,Google API geocode,NA
EGY,EG,Egypt,359783,Assiut,528669,27.18096,31.18368,Global cities list from geonames.org,NA
EGY,EG,Egypt,359792,Aswān,379774,24.09082,32.89942,Global cities list from geonames.org,NA
EGY,EG,Egypt,360630,Cairo,9606916,30.0444196,31.2357116,Google API geocode,NA
EGY,EG,Egypt,358448,Damanhur,318207,31.034080000000003,30.468229999999995,Global cities list from geonames.org,NA
EGY,EG,Egypt,358048,Damietta,305920,31.41648,31.81332,Global cities list from geonames.org,NA
EGY,EG,Egypt,360995,Giza,4367343,30.0130557,31.2088526,Google API geocode,Removed from list (usually because it's a sub-city of a bigger city
EGY,EG,Egypt,361055,Ismailia,429465,30.604270000000003,32.27225000000001,Global cities list from geonames.org,NA
EGY,EG,Egypt,360502,Luxor,422407,25.69893,32.642100000000006,Global cities list from geonames.org,NA
EGY,EG,Egypt,353225,Madīnat an Naşr,668413,30.06667,31.3,Global cities list from geonames.org,Removed from list (usually because it's a sub-city of a bigger city
EGY,EG,Egypt,7799991,New Cairo,313139,30.03,31.47,Global cities list from geonames.org,NA
EGY,EG,Egypt,358619,Port Said,780515,31.265309999999996,32.301899999999996,Global cities list from geonames.org,NA
EGY,EG,Egypt,349076,Shubrā al Khaymah,1240289,30.12511,31.25053,Global cities list from geonames.org,Removed from list (usually because it's a sub-city of a bigger city
EGY,EG,Egypt,359796,Suez,699541,29.973709999999997,32.526270000000004,Global cities list from geonames.org,NA
EGY,EG,Egypt,347497,Tanta,576648,30.788469999999997,31.00192,Global cities list from geonames.org,NA
EGY,EG,Egypt,359493,Zagazig,430445,30.58768,31.502,Global cities list from geonames.org,NA
ERI,ER,Eritrea,343300,Asmara,563930,15.33805,38.931839999999994,Global cities list from geonames.org,NA
ESP,ES,Spain,2521978,Alicante,334757,38.34517,-0.48149,Global cities list from geonames.org,NA
ESP,ES,Spain,3128760,Barcelona,1620343,41.3873974,2.168568,Google API geocode,NA
ESP,ES,Spain,3128026,Bilbao,345821,43.26271000000001,-2.92528,Global cities list from geonames.org,NA
ESP,ES,Spain,2519240,Córdoba,325708,37.89155,-4.77275,Global cities list from geonames.org,NA
ESP,ES,Spain,2515270,Las Palmas de Gran Canaria,378517,28.099729999999997,-15.413430000000002,Global cities list from geonames.org,NA
ESP,ES,Spain,3117735,Madrid,3255944,40.4167754,-3.7037902,Google API geocode,NA
ESP,ES,Spain,2513416,Murcia,460349,37.98703999999999,-1.1300400000000002,Global cities list from geonames.org,NA
ESP,ES,Spain,2514256,Málaga,578460,36.721261,-4.4212655,Google API geocode,NA
ESP,ES,Spain,2512989,Palma,409661,39.569390000000006,2.6502399999999997,Global cities list from geonames.org,NA
ESP,ES,Spain,2510911,Sevilla,684234,37.38283,-5.9731700000000005,Global cities list from geonames.org,NA
ESP,ES,Spain,2509954,Valencia,792492,39.47391,-0.37966,Global cities list from geonames.org,NA
ESP,ES,Spain,3104324,Zaragoza,675301,41.65606,-0.8773400000000001,Global cities list from geonames.org,NA
EST,EE,Estonia,588409,Tallinn,394024,59.43696,24.75353,Global cities list from geonames.org,NA
ETH,ET,Ethiopia,344979,Addis Ababa,3860000,9.0191936,38.7524635,Google API geocode,NA
ETH,ET,Ethiopia,343137,Awasa,422200,7.062049999999999,38.47635,Global cities list from geonames.org,NA
ETH,ET,Ethiopia,342884,Bahir Dar,350000,11.59364,37.39077,Global cities list from geonames.org,NA
ETH,ET,Ethiopia,338832,Dire Dawa,343000,9.59306,41.866110000000006,Global cities list from geonames.org,NA
ETH,ET,Ethiopia,336014,Gonder,466000,12.6,37.46667,Global cities list from geonames.org,NA
ETH,ET,Ethiopia,333795,Jijiga,483000,9.35,42.8,Global cities list from geonames.org,NA
ETH,ET,Ethiopia,331180,Mek'ele,457900,13.49667,39.47528,Global cities list from geonames.org,NA
ETH,ET,Ethiopia,330186,Nazrēt,456900,8.55,39.266670000000005,Global cities list from geonames.org,NA
FIN,FI,Finland,658225,Helsinki,658864,60.169520000000006,24.93545,Global cities list from geonames.org,NA
FRA,FR,France,2996944,Lyon,522969,45.74846,4.84671,Global cities list from geonames.org,NA
FRA,FR,France,12278193,Marne La Vallée,318325,48.83584,2.64241,Global cities list from geonames.org,NA
FRA,FR,France,2995469,Marseille,870731,43.296482,5.36978,Google API geocode,NA
FRA,FR,France,2990969,Nantes,318808,47.21725,-1.55336,Global cities list from geonames.org,NA
FRA,FR,France,2990440,Nice,342669,43.70313000000001,7.26608,Global cities list from geonames.org,NA
FRA,FR,France,2988507,Paris,2138551,48.856614,2.3522219,Google API geocode,NA
FRA,FR,France,2972315,Toulouse,493465,43.60426,1.4436699999999998,Global cities list from geonames.org,NA
GAB,GA,Gabon,2399697,Libreville,846090,0.39241,9.45356,Global cities list from geonames.org,NA
GBR,GB,United Kingdom,2655984,Belfast,345418,54.59682,-5.925409999999999,Global cities list from geonames.org,NA
GBR,GB,United Kingdom,2655613,Birkenhead,325264,53.39337,-3.01479,Global cities list from geonames.org,NA
GBR,GB,United Kingdom,2655603,Birmingham,1144919,52.48141999999999,-1.89983,Global cities list from geonames.org,NA
GBR,GB,United Kingdom,2654993,Bradford,366187,53.79391000000001,-1.75206,Global cities list from geonames.org,NA
GBR,GB,United Kingdom,2654789,Brent,329100,51.553059999999995,-0.3023,Global cities list from geonames.org,Removed from list (usually because it's a sub-city of a bigger city
GBR,GB,United Kingdom,2654675,Bristol,465866,51.454513,-2.58791,Google API geocode,NA
GBR,GB,United Kingdom,2653822,Cardiff,447287,51.48,-3.18,Global cities list from geonames.org,NA
GBR,GB,United Kingdom,2652221,Coventry,345324,52.40656,-1.51217,Global cities list from geonames.org,NA
GBR,GB,United Kingdom,2650225,Edinburgh,506520,55.95206,-3.19648,Global cities list from geonames.org,NA
GBR,GB,United Kingdom,2648579,Glasgow,626410,55.86167039999999,-4.2583345,Google API geocode,NA
GBR,GB,United Kingdom,2646003,Islington,319143,51.53622,-0.10304,Global cities list from geonames.org,Removed from list (usually because it's a sub-city of a bigger city
GBR,GB,United Kingdom,2645425,Kingston upon Hull,314018,53.7446,-0.33524999999999994,Global cities list from geonames.org,NA
GBR,GB,United Kingdom,2644688,Leeds,516298,53.79648,-1.54785,Global cities list from geonames.org,NA
GBR,GB,United Kingdom,2644668,Leicester,368600,52.6386,-1.13169,Global cities list from geonames.org,NA
GBR,GB,United Kingdom,2644210,Liverpool,864122,53.4083714,-2.9915726,Google API geocode,NA
GBR,GB,United Kingdom,2643743,London,8961989,51.5072178,-0.1275862,Google API geocode,NA
GBR,GB,United Kingdom,2643123,Manchester,395515,53.4807593,-2.2426305,Google API geocode,NA
GBR,GB,United Kingdom,2641673,Newcastle upon Tyne,300125,54.973279999999995,-1.6139599999999998,Global cities list from geonames.org,NA
GBR,GB,United Kingdom,2641598,Newport,306844,51.58774,-2.99835,Global cities list from geonames.org,NA
GBR,GB,United Kingdom,2641170,Nottingham,323632,52.9540223,-1.1549892,Google API geocode,NA
GBR,GB,United Kingdom,2639912,Preston,313332,53.762820000000005,-2.7045200000000005,Global cities list from geonames.org,NA
GBR,GB,United Kingdom,2639577,Reading,318014,51.45625,-0.97113,Global cities list from geonames.org,NA
GBR,GB,United Kingdom,2638077,Sheffield,556500,53.38297,-1.4658999999999998,Global cities list from geonames.org,NA
GBR,GB,United Kingdom,2636432,Swansea,300352,51.62079000000001,-3.94323,Global cities list from geonames.org,NA
GEO,GE,Georgia,611717,Tbilisi,1049498,41.6938026,44.80151679999999,Google API geocode,NA
GHA,GH,Ghana,2306104,Accra,1963264,5.559284600000001,-0.1974306,Google API geocode,NA
GHA,GH,Ghana,2298890,Kumasi,2544530,6.6666004,-1.6162709,Google API geocode,NA
GHA,GH,Ghana,2294915,Takoradi,389114,4.89816,-1.76029,Global cities list from geonames.org,NA
GHA,GH,Ghana,2294877,Tamale,464316,9.40079,-0.8393,Global cities list from geonames.org,NA
GIN,GN,Guinea,2422488,Camayenne,1871242,9.535,-13.68778,Global cities list from geonames.org,Removed from list (usually because it's a sub-city of a bigger city
GIN,GN,Guinea,2422465,Conakry,1928389,9.53795,-13.67729,Global cities list from geonames.org,NA
GMB,GM,Gambia,2411989,Serekunda,340000,13.43833,-16.678060000000002,Global cities list from geonames.org,NA
GNB,GW,Guinea-Bissau,2374775,Bissau,439704,11.86357,-15.59767,Global cities list from geonames.org,NA
GRC,GR,Greece,264371,Athens,664046,37.9838096,23.7275388,Google API geocode,NA
GRC,GR,Greece,734077,Thessaloníki,317778,40.64361,22.930860000000003,Global cities list from geonames.org,NA
GTM,GT,Guatemala,3598132,Guatemala City,994938,14.6349149,-90.5068824,Google API geocode,NA
GTM,GT,Guatemala,3592519,Mixco,465773,14.630769999999998,-90.60711,Global cities list from geonames.org,NA
GTM,GT,Guatemala,3587902,Villa Nueva,618397,14.52512,-90.58544,Global cities list from geonames.org,NA
HKG,HK,"Hong Kong, China",1819729,Hong Kong,7491609,22.3193039,114.1693611,"Manually checked, chose the google api value",NA
HKG,HK,"Hong Kong, China",1819609,Kowloon,2303100,22.31667,114.18332999999998,Global cities list from geonames.org,Removed from list (usually because it's a sub-city of a bigger city
HKG,HK,"Hong Kong, China",1819595,Kwai Chung,331600,22.36828,114.13876999999998,Global cities list from geonames.org,Removed from list (usually because it's a sub-city of a bigger city
HKG,HK,"Hong Kong, China",1818920,Sha Tin,495200,22.383329999999997,114.18332999999998,Global cities list from geonames.org,NA
HKG,HK,"Hong Kong, China",1818916,Sha Tin Wai,437500,22.377560000000003,114.19753,Global cities list from geonames.org,NA
HKG,HK,"Hong Kong, China",1818953,Sham Shui Po,431090,22.33023,114.15945,Global cities list from geonames.org,Removed from list (usually because it's a sub-city of a bigger city
HKG,HK,"Hong Kong, China",1818506,Tseung Kwan O,412900,22.327890000000004,114.24992000000002,Global cities list from geonames.org,Removed from list (usually because it's a sub-city of a bigger city
HKG,HK,"Hong Kong, China",1818209,Tsuen Wan,318916,22.37137,114.11329,Global cities list from geonames.org,NA
HKG,HK,"Hong Kong, China",1818446,Tuen Mun,507900,22.39175,113.97157,Global cities list from geonames.org,NA
HKG,HK,"Hong Kong, China",1931681,Victoria,956800,22.2875,114.14417,Global cities list from geonames.org,Removed from list (usually because it's a sub-city of a bigger city
HKG,HK,"Hong Kong, China",1818304,Wong Tai Sin,425235,22.35,114.18332999999998,Global cities list from geonames.org,Removed from list (usually because it's a sub-city of a bigger city
HND,HN,Honduras,3601782,San Pedro Sula,801259,15.504169999999998,-88.02499999999999,Global cities list from geonames.org,NA
HND,HN,Honduras,3600949,Tegucigalpa,850848,14.0818,-87.20681,Global cities list from geonames.org,NA
HRV,HR,Croatia,3186886,Zagreb,663592,45.8150108,15.981919,Google API geocode,NA
HTI,HT,Haiti,3728338,Carrefour,442156,18.54114,-72.39922000000001,Global cities list from geonames.org,NA
HTI,HT,Haiti,3726786,Delmas 73,382920,18.54472,-72.30277999999998,Global cities list from geonames.org,Removed from list (usually because it's a sub-city of a bigger city
HTI,HT,Haiti,3718426,Port-au-Prince,1234742,18.54349,-72.33881,Global cities list from geonames.org,NA
HTI,HT,Haiti,3718420,Port-de-Paix,306217,19.93984,-72.83036999999999,Global cities list from geonames.org,NA
HUN,HU,Hungary,3054643,Budapest,1741041,47.497912,19.040235,Google API geocode,NA
IDN,ID,Indonesia,1651531,Ambon,347288,-3.69583,128.18333,Global cities list from geonames.org,NA
IDN,ID,Indonesia,1650527,Balikpapan,695287,-1.2675299999999998,116.82886999999998,Global cities list from geonames.org,NA
IDN,ID,Indonesia,1624917,Bandar Lampung,1166066,-5.42917,105.26111000000002,Global cities list from geonames.org,NA
IDN,ID,Indonesia,1650357,Bandung,2444160,-6.9174639000000004,107.6191228,Google API geocode,NA
IDN,ID,Indonesia,1650213,Banjarmasin,657663,-3.319869999999999,114.59075,Global cities list from geonames.org,NA
IDN,ID,Indonesia,6295587,Batam,1164352,1.14937,104.02491,Global cities list from geonames.org,NA
IDN,ID,Indonesia,1649378,Bekasi,2564940,-6.2349,106.9896,Global cities list from geonames.org,NA
IDN,ID,Indonesia,1649150,Bengkulu,373591,-3.80044,102.26554,Global cities list from geonames.org,NA
IDN,ID,Indonesia,1648473,Bogor,1099422,-6.597146899999999,106.8060388,Google API geocode,NA
IDN,ID,Indonesia,1647003,Cibinong,363424,-6.481670000000001,106.85417,Global cities list from geonames.org,NA
IDN,ID,Indonesia,1646448,Cimahi,568400,-6.87222,107.5425,Global cities list from geonames.org,NA
IDN,ID,Indonesia,1646170,Cirebon,333303,-6.706300000000001,108.557,Global cities list from geonames.org,NA
IDN,ID,Indonesia,1645528,Denpasar,725314,-8.65,115.21667,Global cities list from geonames.org,NA
IDN,ID,Indonesia,1645524,Depok,2056400,-6.4,106.81861,Global cities list from geonames.org,NA
IDN,ID,Indonesia,1642911,Jakarta,8540121,-6.1944491,106.8229198,Google API geocode,NA
IDN,ID,Indonesia,1642858,Jambi City,606200,-1.6,103.61667,Global cities list from geonames.org,NA
IDN,ID,Indonesia,2082600,Jayapura,404004,-2.53371,140.71813,Global cities list from geonames.org,NA
IDN,ID,Indonesia,1642548,Jepara,1257912,-6.5924,110.671,Global cities list from geonames.org,NA
IDN,ID,Indonesia,1640344,Kendari,345107,-3.9778,122.51507,Global cities list from geonames.org,NA
IDN,ID,Indonesia,2057087,Kupang,442758,-10.17083,123.60694,Global cities list from geonames.org,NA
IDN,ID,Indonesia,1622786,Makassar,1423877,-5.1615828,119.4359281,Google API geocode,NA
IDN,ID,Indonesia,1636722,Malang,843810,-7.9666204,112.6326321,Google API geocode,NA
IDN,ID,Indonesia,1636544,Manado,451916,1.48218,124.84892,Global cities list from geonames.org,NA
IDN,ID,Indonesia,1635882,Mataram,429651,-8.58333,116.11667,Global cities list from geonames.org,NA
IDN,ID,Indonesia,1214520,Medan,2435252,3.5951956,98.6722227,Google API geocode,NA
IDN,ID,Indonesia,1633419,Padang,909040,-0.94924,100.35427,Manually checked - chose the geoname value,NA
IDN,ID,Indonesia,1633070,Palembang,1668848,-2.9760735,104.7754307,"Manually checked, chose the google api value",NA
IDN,ID,Indonesia,1633034,Palu,373218,-0.90833,119.87082999999998,Global cities list from geonames.org,NA
IDN,ID,Indonesia,1631766,Pekalongan,307097,-6.8886,109.67529999999998,Global cities list from geonames.org,NA
IDN,ID,Indonesia,1631761,Pekanbaru,1085000,0.5166700000000001,101.44167000000002,Global cities list from geonames.org,NA
IDN,ID,Indonesia,1214189,Percut,311063,3.6253,98.864,Global cities list from geonames.org,NA
IDN,ID,Indonesia,1630789,Pontianak,658685,-0.03193999999999999,109.325,Global cities list from geonames.org,NA
IDN,ID,Indonesia,1629001,Samarinda,831460,-0.4948232,117.1436154,Google API geocode,NA
IDN,ID,Indonesia,1627896,Semarang,1653524,-6.9818006,110.4120729,Google API geocode,NA
IDN,ID,Indonesia,1627549,Serang,692101,-6.115279999999999,106.15417,Global cities list from geonames.org,NA
IDN,ID,Indonesia,1626801,Situbondo,685967,-7.706230000000001,114.00976,Global cities list from geonames.org,NA
IDN,ID,Indonesia,8581443,South Tangerang,1365688,-6.288620000000001,106.71789,Global cities list from geonames.org,NA
IDN,ID,Indonesia,1625822,Surabaya,2874314,-7.2574719,112.7520883,Google API geocode,NA
IDN,ID,Indonesia,1625812,Surakarta,522364,-7.556109999999999,110.83167,Global cities list from geonames.org,NA
IDN,ID,Indonesia,1625084,Tangerang,1911914,-6.1701796,106.6403236,Google API geocode,NA
IDN,ID,Indonesia,1621177,Yogyakarta,373589,-7.80139,110.36472,Global cities list from geonames.org,NA
IND,IN,India,1279259,Agra,1430055,27.18333,78.01667,Manually checked - chose the geoname value,NA
IND,IN,India,1279228,Ahmadnagar,367140,19.09457,74.73843,Global cities list from geonames.org,NA
IND,IN,India,1279233,Ahmedabad,6357693,23.022505,72.5713621,Google API geocode,NA
IND,IN,India,1279159,Ajmer,517911,26.4521,74.63866999999999,Global cities list from geonames.org,NA
IND,IN,India,1279105,Akola,428857,20.70957,76.99810000000001,Global cities list from geonames.org,NA
IND,IN,India,1279017,Alīgarh,753207,27.88145,78.07464,Manually checked - chose the geoname value,NA
IND,IN,India,1278840,Ambattūr,341049,13.09818,80.16152000000001,Global cities list from geonames.org,Removed from list (usually because it's a sub-city of a bigger city
IND,IN,India,1278710,Amritsar,1092450,31.6339793,74.8722642,Google API geocode,NA
IND,IN,India,1278718,Amrāvati,603837,20.93333,77.75,Manually checked - chose the geoname value,NA
IND,IN,India,1277029,Barddhamān,301725,23.255719999999997,87.85691,Global cities list from geonames.org,NA
IND,IN,India,1277013,Bareilly,745435,28.3670355,79.4304381,Google API geocode,NA
IND,IN,India,1276533,Belagavi,428720,15.85212,74.50447,Global cities list from geonames.org,NA
IND,IN,India,1276509,Bellary,336681,15.14205,76.92398,Global cities list from geonames.org,NA
IND,IN,India,1277333,Bengaluru,8443675,12.9715987,77.5945627,Google API geocode,NA
IND,IN,India,1276032,Bhavnagar,605882,21.76287,72.15330999999999,Global cities list from geonames.org,NA
IND,IN,India,1276014,Bhayandar,520301,19.30157,72.851070000000007,Global cities list from geonames.org,NA
IND,IN,India,1275971,Bhilai,625138,21.1938475,81.3509416,"Manually checked, chose the google api value",NA
IND,IN,India,1275901,Bhiwandi,874032,19.2812547,73.0482912,Google API geocode,NA
IND,IN,India,1275841,Bhopāl,1599914,23.25469,77.40289,Global cities list from geonames.org,NA
IND,IN,India,1275817,Bhubaneswar,837000,20.2960587,85.8245398,Google API geocode,NA
IND,IN,India,1276300,Bhāgalpur,361548,25.24446,86.97183,Global cities list from geonames.org,NA
IND,IN,India,1276058,Bhātpāra,483129,22.86643,88.40113000000001,Global cities list from geonames.org,NA
IND,IN,India,1275960,Bhīlwāra,326431,25.34707,74.64081,Global cities list from geonames.org,NA
IND,IN,India,1275610,Bilimora,510879,20.76957,72.96134,Global cities list from geonames.org,NA
IND,IN,India,1275362,Bokāro,564319,23.66934,86.15161,Global cities list from geonames.org,NA
IND,IN,India,1275248,Borivli,609617,19.234960000000004,72.85976,Global cities list from geonames.org,NA
IND,IN,India,1275198,Brahmapur,324726,19.31151,84.7929,Global cities list from geonames.org,NA
IND,IN,India,1275665,Bīkaner,576015,28.0229348,73.3119159,Google API geocode,NA
IND,IN,India,1274746,Chandīgarh,960787,30.73629,76.7884,Global cities list from geonames.org,NA
IND,IN,India,1264527,Chennai,4681087,13.08784,80.27846999999998,Global cities list from geonames.org,NA
IND,IN,India,1274693,Chānda,328351,19.95076,79.29523,Global cities list from geonames.org,NA
IND,IN,India,1273874,Cochin,604696,9.9312328,76.26730409999999,Google API geocode,NA
IND,IN,India,1273865,Coimbatore,2136916,11.0168445,76.9558321,Google API geocode,NA
IND,IN,India,1273780,Cuttack,580000,20.462521,85.8829895,Google API geocode,NA
IND,IN,India,1273368,Davangere,435128,14.46693,75.92694,Global cities list from geonames.org,NA
IND,IN,India,1273313,Dehra Dūn,522081,30.3164945,78.03219179999999,Google API geocode,NA
IND,IN,India,1273294,Delhi,10927986,28.6139391,77.2090212,"Manually checked, chose the google api value",NA
IND,IN,India,1272979,Dhanbad,1196214,23.7956531,86.43038589999999,Google API geocode,NA
IND,IN,India,1272691,Dhūlia,366980,20.9013,74.77736999999999,Global cities list from geonames.org,NA
IND,IN,India,1272423,Dombivli,1193000,19.21667,73.08332999999999,Global cities list from geonames.org,NA
IND,IN,India,1272175,Durgapur,518872,23.51583,87.30801,Global cities list from geonames.org,NA
IND,IN,India,1272013,Erode,521891,11.3428,77.72741,Global cities list from geonames.org,NA
IND,IN,India,1271951,Faridabad,1220229,28.4089123,77.3177894,Google API geocode,NA
IND,IN,India,1271885,Fīrozābād,306409,27.150920000000003,78.39781,Global cities list from geonames.org,NA
IND,IN,India,1271439,Gaya,423692,24.79686,85.00385,Global cities list from geonames.org,NA
IND,IN,India,1271308,Ghāziābād,1199191,28.6691565,77.45375779999999,Google API geocode,NA
IND,IN,India,1270668,Guntur,530577,16.299739999999996,80.45729000000001,Global cities list from geonames.org,NA
IND,IN,India,1271476,Guwahati,899094,26.1844,91.7458,Global cities list from geonames.org,NA
IND,IN,India,1270583,Gwalior,882458,26.2124007,78.1772053,Google API geocode,NA
IND,IN,India,1269920,Hubli,840214,15.34776,75.13377999999999,Global cities list from geonames.org,NA
IND,IN,India,1269843,Hyderābād,6809970,17.406498,78.47724389999999,Google API geocode,NA
IND,IN,India,1270396,Hāora,1027672,22.576880000000003,88.31857,Global cities list from geonames.org,Removed from list (usually because it's a sub-city of a bigger city
IND,IN,India,1269743,Indore,1837041,22.7195687,75.8577258,Google API geocode,NA
IND,IN,India,1269633,Jabalpur,1030168,23.1685786,79.9338798,Google API geocode,NA
IND,IN,India,1269515,Jaipur,2711758,26.9135317,75.7691451,Manually searched on google,NA
IND,IN,India,1268782,Jalandhar,785178,31.32556,75.57916999999999,Global cities list from geonames.org,NA
IND,IN,India,1269407,Jalgaon,429298,21.00292,75.56602000000001,Global cities list from geonames.org,NA
IND,IN,India,1269321,Jammu,465567,32.73528,74.86167,Manually checked - chose the geoname value,NA
IND,IN,India,1269317,Jamnagar,492056,22.4707019,70.05773,Google API geocode,NA
IND,IN,India,1269300,Jamshedpur,1339438,22.8045665,86.2028754,Google API geocode,NA
IND,IN,India,1269006,Jhānsi,412927,25.45887,78.57994,Global cities list from geonames.org,NA
IND,IN,India,1268865,Jodhpur,921476,26.268409999999996,73.00594,Manually checked - chose the geoname value,NA
IND,IN,India,1270752,Kalaburagi,483615,17.33583,76.83757,Global cities list from geonames.org,NA
IND,IN,India,12165956,Kallakurichi,1682687,11.73379,78.95925000000001,Global cities list from geonames.org,NA
IND,IN,India,1268295,Kalyān,1262255,19.243699999999997,73.13553999999999,Manually checked - chose the geoname value,NA
IND,IN,India,12501153,Kanayannur,851406,9.96667,76.26667,Global cities list from geonames.org,NA
IND,IN,India,1267995,Kanpur,2823249,26.465229999999995,80.34975,Manually checked - chose the geoname value,NA
IND,IN,India,1267696,Karol Bāgh,505241,28.651360000000004,77.19072,Global cities list from geonames.org,Removed from list (usually because it's a sub-city of a bigger city
IND,IN,India,1266285,Kolhāpur,516142,16.695629999999998,74.23167000000001,Global cities list from geonames.org,NA
IND,IN,India,1275004,Kolkata,4631392,22.562629999999995,88.36304,Global cities list from geonames.org,NA
IND,IN,India,1259091,Kollam,367107,8.88113,76.58469000000001,Global cities list from geonames.org,NA
IND,IN,India,1266122,Korba,419146,22.3458,82.69632999999999,Global cities list from geonames.org,NA
IND,IN,India,1266049,Kota,763088,25.182539999999996,75.83906999999999,Manually checked - chose the geoname value,NA
IND,IN,India,1265873,Kozhikode,550440,11.248019999999997,75.7804,Global cities list from geonames.org,NA
IND,IN,India,1265711,Kulti,305405,23.73166,86.84372,Global cities list from geonames.org,NA
IND,IN,India,1265491,Kurnool,460184,15.828869999999998,78.03602000000001,Global cities list from geonames.org,NA
IND,IN,India,1268257,Kāmārhāti,332965,22.67111,88.37472,Global cities list from geonames.org,Removed from list (usually because it's a sub-city of a bigger city
IND,IN,India,1265767,Kūkatpalli,341709,17.48486,78.41376000000001,Global cities list from geonames.org,NA
IND,IN,India,1265014,Latur,348967,18.39721,76.56784,Global cities list from geonames.org,NA
IND,IN,India,1264733,Lucknow,2472011,26.8466937,80.94616599999999,Google API geocode,NA
IND,IN,India,1264728,Ludhiāna,1545368,30.91204,75.85378999999999,Global cities list from geonames.org,NA
IND,IN,India,1264521,Madurai,1465625,9.9252007,78.1197754,Google API geocode,NA
IND,IN,India,1348843,Maheshtala,448317,22.508619999999997,88.25322000000001,Global cities list from geonames.org,Removed from list (usually because it's a sub-city of a bigger city
IND,IN,India,1263780,Mangalore,417387,12.91723,74.85602999999999,Manually checked - chose the geoname value,NA
IND,IN,India,1263364,Mathura,330511,27.5035,77.67214999999999,Global cities list from geonames.org,NA
IND,IN,India,1263214,Meerut,1223184,28.9844618,77.7064137,Google API geocode,NA
IND,IN,India,1262801,Morādābād,721139,28.8386481,78.7733286,Google API geocode,NA
IND,IN,India,1275339,Mumbai,12691836,19.07283,72.88261,Global cities list from geonames.org,NA
IND,IN,India,1262332,Muzaffarnagar,349706,29.47091,77.70332,Global cities list from geonames.org,NA
IND,IN,India,1262330,Muzaffarpur,333200,26.12259,85.39055,Global cities list from geonames.org,NA
IND,IN,India,1262321,Mysore,868313,12.2958104,76.6393805,Google API geocode,NA
IND,IN,India,1264115,Mālegaon,435362,20.54966,74.53462000000002,Global cities list from geonames.org,NA
IND,IN,India,1262180,Nagpur,2228018,21.1458004,79.0881546,Google API geocode,NA
IND,IN,India,1262111,Najafgarh,1365000,28.60922,76.97982,Global cities list from geonames.org,NA
IND,IN,India,1261977,Nanded,550564,19.16023,77.31497,Global cities list from geonames.org,NA
IND,IN,India,1261809,Narela,800000,28.85267,77.09288,Global cities list from geonames.org,NA
IND,IN,India,1261731,Nashik,1289497,19.9974533,73.78980229999999,Google API geocode,NA
IND,IN,India,6619347,Navi Mumbai,2600000,19.0330488,73.0296625,Google API geocode,Removed from list (usually because it's a sub-city of a bigger city
IND,IN,India,1261529,Nellore,404158,14.44992,79.98697,Global cities list from geonames.org,NA
IND,IN,India,1261481,New Delhi,317797,28.62137,77.21480000000001,Global cities list from geonames.org,Removed from list (usually because it's a sub-city of a bigger city
IND,IN,India,1261258,Nizāmābād,305438,18.67154,78.0988,Global cities list from geonames.org,NA
IND,IN,India,1261162,Nowrangapur,1220946,19.23114,82.54826000000001,Global cities list from geonames.org,NA
IND,IN,India,1260107,Patiāla,329224,30.336250000000003,76.3922,Global cities list from geonames.org,NA
IND,IN,India,1260086,Patna,1599920,25.6094875806736,85.1244735717773,Manually searched on google,lat/lon manually updated
IND,IN,India,1259652,Pimpri,1284606,18.62292,73.80696,Global cities list from geonames.org,NA
IND,IN,India,1278994,Prayagraj,1073438,25.4358011,81.846311,Google API geocode,NA
IND,IN,India,1259425,Puducherry,657209,11.93381,79.82978999999999,Global cities list from geonames.org,NA
IND,IN,India,1259229,Pune,3124458,18.5204303,73.8567437,Google API geocode,NA
IND,IN,India,1259239,Punāsa,350000,22.23507,76.39335,Global cities list from geonames.org,NA
IND,IN,India,1260482,Pānihāti,378705,22.690890000000003,88.37404,Global cities list from geonames.org,NA
IND,IN,India,1258980,Raipur,679995,21.23333,81.63332999999999,Manually checked - chose the geoname value,NA
IND,IN,India,1255783,Rajpur Sonarpur,424368,22.4382,88.43205,Global cities list from geonames.org,NA
IND,IN,India,1258526,Ranchi,1120374,23.3440997,85.309562,Google API geocode,NA
IND,IN,India,12069922,Rohini,860000,28.743219999999997,77.06778,Global cities list from geonames.org,NA
IND,IN,India,1258076,Rohtak,317245,28.89447,76.58917,Global cities list from geonames.org,NA
IND,IN,India,1258315,Rourkela,536450,22.224960000000003,84.86414,Global cities list from geonames.org,NA
IND,IN,India,1258932,Rājahmundry,376333,17.00517,81.77784,Global cities list from geonames.org,NA
IND,IN,India,1258847,Rājkot,1390640,22.3038945,70.80215989999999,Google API geocode,NA
IND,IN,India,1258662,Rāmgundam,452261,18.80084,79.45206,Global cities list from geonames.org,NA
IND,IN,India,1257806,Sahāranpur,484873,29.9679,77.54522000000001,Global cities list from geonames.org,NA
IND,IN,India,1257629,Salem,917414,11.664325,78.1460142,Google API geocode,NA
IND,IN,India,1278149,Sambhaji Nagar,1016441,19.87757,75.34226000000001,Manually checked - chose the geoname value,NA
IND,IN,India,1256515,Shimoga,319550,13.93157,75.56791000000001,Global cities list from geonames.org,NA
IND,IN,India,6943660,Shivaji Nagar,1000000,18.53017,73.85262999999999,Global cities list from geonames.org,Removed from list (usually because it's a sub-city of a bigger city
IND,IN,India,1256436,Sholapur,997281,17.661465,75.8774177,Manually searched on google,NA
IND,IN,India,1256409,Shyamnagar,441956,22.83333,88.36667,Global cities list from geonames.org,Removed from list (usually because it's a sub-city of a bigger city
IND,IN,India,1256728,Shāhjānpur,320434,27.88165,79.90918,Global cities list from geonames.org,NA
IND,IN,India,1256525,Siliguri,515574,26.71004,88.42851,Global cities list from geonames.org,NA
IND,IN,India,1255634,Srinagar,975857,34.08565,74.80555,Global cities list from geonames.org,NA
IND,IN,India,1255364,Surat,4591246,21.1702401,72.83106070000001,Google API geocode,NA
IND,IN,India,1257416,Sāngli,601214,16.854380000000003,74.56417,Global cities list from geonames.org,NA
IND,IN,India,1254745,Teni,1034724,10.01115,77.47772,Global cities list from geonames.org,NA
IND,IN,India,1254163,Thiruvananthapuram,784153,8.485500000000002,76.94924000000002,Global cities list from geonames.org,NA
IND,IN,India,8629640,Thoothukudi,410760,8.767349999999999,78.13425000000001,Global cities list from geonames.org,NA
IND,IN,India,1254187,Thrissur,315957,10.51667,76.21667000000001,Global cities list from geonames.org,NA
IND,IN,India,1254661,Thāne,1261517,19.1959186245942,72.9725646972656,Manually searched on google,lat/lon manually updated
IND,IN,India,1254388,Tiruchirappalli,1022518,10.7904833,78.7046725,Google API geocode,NA
IND,IN,India,1254361,Tirunelveli,1435844,8.727419999999999,77.68379999999999,Global cities list from geonames.org,NA
IND,IN,India,1254348,Tiruppur,963173,11.1085242,77.3410656,Google API geocode,NA
IND,IN,India,1254089,Tumkūr,307359,13.341359999999998,77.1022,Global cities list from geonames.org,NA
IND,IN,India,1253986,Udaipur,422784,24.585839999999997,73.71346000000001,Global cities list from geonames.org,NA
IND,IN,India,1253914,Ujjain,457346,23.18239,75.77642999999999,Global cities list from geonames.org,NA
IND,IN,India,1253894,Ulhasnagar,516584,19.21667,73.14999999999999,Global cities list from geonames.org,NA
IND,IN,India,1253573,Vadodara,1822221,22.3071588,73.1812187,Google API geocode,NA
IND,IN,India,1253405,Varanasi,1164404,25.31668,83.01041000000001,Global cities list from geonames.org,NA
IND,IN,India,1253286,Vellore,484690,12.9184,79.13255,Global cities list from geonames.org,NA
IND,IN,India,1253184,Vijayawada,874587,16.5061743,80.6480153,Google API geocode,NA
IND,IN,India,1253102,Visakhapatnam,1063178,17.6868159,83.2184815,Google API geocode,NA
IND,IN,India,1252948,Warangal,557802,17.9692624,79.59263039999999,Google API geocode,NA
IND,IN,India,1278314,Āsansol,504271,23.68333,86.98333,Global cities list from geonames.org,NA
IRL,IE,Ireland,2964574,Dublin,1024027,53.3498053,-6.2603097,Google API geocode,NA
IRN,IR,"Iran, Islamic Rep. of",145459,Abadan,370180,30.3392,48.3043,Global cities list from geonames.org,NA
IRN,IR,"Iran, Islamic Rep. of",144448,Ahvaz,841145,31.3183272,48.6706187,Google API geocode,NA
IRN,IR,"Iran, Islamic Rep. of",143083,Ardabīl,410753,38.2498,48.29330000000001,Global cities list from geonames.org,NA
IRN,IR,"Iran, Islamic Rep. of",143127,Arāk,503647,34.094930000000005,49.69809000000001,Global cities list from geonames.org,NA
IRN,IR,"Iran, Islamic Rep. of",141681,Bandar Abbas,352173,27.1865,56.2808,Global cities list from geonames.org,NA
IRN,IR,"Iran, Islamic Rep. of",449504,Eslamshahr,450000,35.55222,51.235040000000005,Global cities list from geonames.org,NA
IRN,IR,"Iran, Islamic Rep. of",132144,Hamadān,528256,34.799220000000005,48.51456,Global cities list from geonames.org,NA
IRN,IR,"Iran, Islamic Rep. of",418863,Isfahan,1547164,32.6538966,51.66596560000001,Google API geocode,NA
IRN,IR,"Iran, Islamic Rep. of",23814,Kahrīz,766706,34.383799999999994,47.0553,Global cities list from geonames.org,NA
IRN,IR,"Iran, Islamic Rep. of",128747,Karaj,1448075,35.8438581,50.97149950000001,Google API geocode,NA
IRN,IR,"Iran, Islamic Rep. of",128234,Kerman,577514,30.283209999999997,57.078790000000005,Manually checked - chose the geoname value,NA
IRN,IR,"Iran, Islamic Rep. of",128226,Kermanshah,621100,34.3276924,47.0777685,Google API geocode,NA
IRN,IR,"Iran, Islamic Rep. of",127349,Khorramabad,329825,33.487779999999994,48.35583,Global cities list from geonames.org,NA
IRN,IR,"Iran, Islamic Rep. of",127319,Khorramshahr,330606,30.440789999999996,48.184279999999994,Global cities list from geonames.org,NA
IRN,IR,"Iran, Islamic Rep. of",124665,Mashhad,2307177,36.2955524,59.6029378,Manually searched on google,NA
IRN,IR,"Iran, Islamic Rep. of",121801,Orūmīyeh,577307,37.5498061,45.0786282,Google API geocode,NA
IRN,IR,"Iran, Islamic Rep. of",10630176,Pasragad Branch,787878,34.77772,48.47167999999999,Global cities list from geonames.org,NA
IRN,IR,"Iran, Islamic Rep. of",119505,Qazvin,333635,36.26877000000001,50.0041,Global cities list from geonames.org,NA
IRN,IR,"Iran, Islamic Rep. of",119208,Qom,900000,34.6429766,50.8704358,Manually searched on google,NA
IRN,IR,"Iran, Islamic Rep. of",118743,Rasht,594590,37.2712671,49.5920736,Google API geocode,NA
IRN,IR,"Iran, Islamic Rep. of",117574,Sanandaj,349176,35.314949999999996,46.998830000000005,Global cities list from geonames.org,NA
IRN,IR,"Iran, Islamic Rep. of",115019,Shiraz,1249942,29.61031,52.531130000000005,Manually checked - chose the geoname value,NA
IRN,IR,"Iran, Islamic Rep. of",113646,Tabriz,1424641,38.0791831,46.2886732,Google API geocode,NA
IRN,IR,"Iran, Islamic Rep. of",112931,Tehran,7153309,35.6890908991244,51.3882064819336,Manually searched on google,lat/lon manually updated
IRN,IR,"Iran, Islamic Rep. of",111822,Yazd,477905,31.89722,54.3675,Global cities list from geonames.org,NA
IRN,IR,"Iran, Islamic Rep. of",1159301,Zahedan,551980,29.4963,60.8629,Manually checked - chose the geoname value,NA
IRN,IR,"Iran, Islamic Rep. of",111453,Zanjan,357471,36.67642,48.49628,Global cities list from geonames.org,NA
IRN,IR,"Iran, Islamic Rep. of",14256,Āzādshahr,514102,34.790490000000005,48.57011000000001,Global cities list from geonames.org,NA
IRQ,IQ,Iraq,100077,Abū Ghurayb,900000,33.30563,44.18477,Global cities list from geonames.org,Removed from list (usually because it's a sub-city of a bigger city
IRQ,IQ,Iraq,99762,Ad Dīwānīyah,318801,31.99289,44.925520000000006,Global cities list from geonames.org,NA
IRQ,IQ,Iraq,388349,Al Başrah al Qadīmah,2015483,30.50316,47.81507,Global cities list from geonames.org,NA
IRQ,IQ,Iraq,99131,Al Kūt,315162,32.5128,45.81817,Global cities list from geonames.org,NA
IRQ,IQ,Iraq,99071,Al Mawşil al Jadīdah,2065597,36.332710000000006,43.10555000000001,Global cities list from geonames.org,NA
IRQ,IQ,Iraq,99347,Al Ḩillah,455700,32.46367,44.41963,Global cities list from geonames.org,NA
IRQ,IQ,Iraq,99608,Al ‘Amārah,323302,31.83561,47.14483,Global cities list from geonames.org,NA
IRQ,IQ,Iraq,98463,As Sulaymānīyah,878146,35.56496,45.4329,Global cities list from geonames.org,NA
IRQ,IQ,Iraq,98182,Baghdad,7216000,33.340579999999996,44.400879999999994,Global cities list from geonames.org,NA
IRQ,IQ,Iraq,99532,Basrah,1326564,30.508519999999997,47.7804,Global cities list from geonames.org,NA
IRQ,IQ,Iraq,96994,Dihok,340900,36.86709,42.98845,Global cities list from geonames.org,NA
IRQ,IQ,Iraq,95446,Erbil,1612700,36.183330000000005,44.01193,Global cities list from geonames.org,NA
IRQ,IQ,Iraq,94824,Karbala,1218732,32.61603,44.02488,Global cities list from geonames.org,NA
IRQ,IQ,Iraq,94787,Kirkuk,1031000,35.46806,44.39222,Global cities list from geonames.org,NA
IRQ,IQ,Iraq,99072,Mosul,1683000,36.335,43.11889,Global cities list from geonames.org,NA
IRQ,IQ,Iraq,98860,Najaf,482576,32.025940000000006,44.34625,Global cities list from geonames.org,NA
IRQ,IQ,Iraq,98854,Nasiriyah,558400,31.057990000000004,46.257259999999995,Global cities list from geonames.org,NA
PSE,PS,Palestine,281184,Jerusalem,971800,31.768319,35.21371,Google API geocode,NA
ISR,IL,Israel,293397,Tel Aviv,432892,32.0852999,34.78176759999999,Google API geocode,NA
ITA,IT,Italy,3182351,Bari,316491,41.12066,16.86982,Global cities list from geonames.org,NA
ITA,IT,Italy,3181928,Bologna,394843,44.49381,11.33875,Global cities list from geonames.org,NA
ITA,IT,Italy,2525068,Catania,311584,37.492230000000006,15.07041,Global cities list from geonames.org,NA
ITA,IT,Italy,3176959,Florence,367150,43.779250000000005,11.246259999999998,Global cities list from geonames.org,NA
ITA,IT,Italy,3176219,Genoa,580097,44.4056499,8.946256,Google API geocode,NA
ITA,IT,Italy,3173435,Milan,1371498,45.464203500000004,9.189982,Google API geocode,NA
ITA,IT,Italy,3172394,Naples,909048,40.8517746,14.2681244,Google API geocode,NA
ITA,IT,Italy,2523920,Palermo,648260,38.115778,13.360063,Manually searched on google,NA
ITA,IT,Italy,3169070,Rome,2318895,41.9027835,12.4963655,Google API geocode,NA
ITA,IT,Italy,3165524,Turin,847287,45.07049,7.68682,Manually checked - chose the geoname value,NA
JAM,JM,Jamaica,3489854,Kingston,937700,18.0178743,-76.8099041,Google API geocode,NA
JAM,JM,Jamaica,3489297,New Kingston,583958,18.00747,-76.78319,Global cities list from geonames.org,NA
JOR,JO,Jordan,250441,Amman,1275857,31.9518709315558,35.9235763549805,Manually searched on google,lat/lon manually updated
JOR,JO,Jordan,248946,Irbid,569068,32.55556,35.849999999999994,Global cities list from geonames.org,NA
JOR,JO,Jordan,250090,Zarqa,792665,32.072750000000006,36.087959999999995,Global cities list from geonames.org,NA
JPN,JP,Japan,2113126,Akita,305625,39.71667,140.11666999999997,Global cities list from geonames.org,NA
JPN,JP,Japan,1865387,Amagasaki,442173,34.71667,135.41666999999998,Global cities list from geonames.org,Removed from list (usually because it's a sub-city of a bigger city
JPN,JP,Japan,2130629,Asahikawa,333530,43.77063,142.36489,Global cities list from geonames.org,NA
JPN,JP,Japan,2113015,Chiba,979768,35.6074041,140.1065366,Google API geocode,NA
JPN,JP,Japan,1864092,Fujisawa,439728,35.349259999999994,139.47665999999998,Global cities list from geonames.org,NA
JPN,JP,Japan,1863967,Fukuoka,1603543,33.5901838,130.4016888,Google API geocode,NA
JPN,JP,Japan,1863917,Fukuyama,468812,34.48333,133.36667,Global cities list from geonames.org,NA
JPN,JP,Japan,1863641,Gifu-shi,400118,35.42291000000001,136.76039,Global cities list from geonames.org,NA
JPN,JP,Japan,1863440,Hachiōji,561344,35.6664381,139.3160068,Google API geocode,NA
JPN,JP,Japan,1863289,Hamamatsu,791707,34.7102752,137.7274159,Google API geocode,NA
JPN,JP,Japan,1862752,Higashi-ōsaka,489077,34.66667,135.58333000000002,Global cities list from geonames.org,Removed from list (usually because it's a sub-city of a bigger city
JPN,JP,Japan,1862627,Himeji,525682,34.816669999999995,134.7,Global cities list from geonames.org,NA
JPN,JP,Japan,1862540,Hirakata,406331,34.81352,135.64914,Global cities list from geonames.org,NA
JPN,JP,Japan,1862415,Hiroshima,1199391,34.3852894,132.4553055,Google API geocode,NA
JPN,JP,Japan,1863905,Honchō,644668,35.6945485,139.9827277,Google API geocode,NA
JPN,JP,Japan,1861949,Ichinomiya,379654,35.3,136.8,Global cities list from geonames.org,NA
JPN,JP,Japan,2112539,Iwaki,357309,37.05,140.88333000000003,Global cities list from geonames.org,NA
JPN,JP,Japan,1860827,Kagoshima,595049,31.5968539,130.5571392,Google API geocode,NA
JPN,JP,Japan,1860243,Kanazawa,466029,36.6,136.61666999999997,Global cities list from geonames.org,NA
JPN,JP,Japan,1859924,Kashiwa,433436,35.86224,139.97732000000002,Global cities list from geonames.org,NA
JPN,JP,Japan,1859740,Kawagoe,337931,35.90861,139.48528000000002,Global cities list from geonames.org,NA
JPN,JP,Japan,1859730,Kawaguchi,607373,35.80521,139.71071999999998,Global cities list from geonames.org,NA
JPN,JP,Japan,1859642,Kawasaki,1531646,35.52056,139.71722,Manually checked - chose the geoname value,NA
JPN,JP,Japan,1859307,Kitakyushu,940978,33.8834976,130.8751773,"Manually checked, chose the google api value",NA
